{"type":"FeatureCollection","features":[{"geometry":{"coordinates":[-98.031713,30.012441],"type":"Point"},"id":"Jobell Cafe and Bistro","type":"Feature","properties":{"Zip":78676,"website":"http://www.jobellcafe.com","address":"16920 RR 12","description":"Owners David and Jessenia Bober took a risk when they left New York to open a restaurant on a winding Hill Country road, but the cuisine \u2013 saké-cured gravlax, lamb and pork pappardelle, steak frites \u2013 couldn\u2019t be more assured. With one of the most cozy dining rooms in the area, it is the definition of destination dining.","Latitude":30.012441,"City":"Wimberley","Longitude":-98.031713,"County":"Hays County","Accuracy Type":"place","Accuracy Score":0.33,"Number":"","phone":"","State":"TX","name":"Jobell Cafe and Bistro","moreInfoUrl":"http://www.austinchronicle.com/locations/jobell-cafe-and-bistro-1842678/","Street":"","Country":"US","href":"http://www.austinchronicle.com/food/first-plates/2016/jobell-cafe-and-bistro/","region":"West"}},{"geometry":{"coordinates":[-97.896294,30.022718],"type":"Point"},"id":"Thai-Kun","type":"Feature","properties":{"Zip":78640,"website":"http://www.austinchronicle.com/locations/thai-kun-1844613/","address":"11601 Rock Rose #100","description":"If you can\u2019t stand the heat, get out of this kitchen. Chef Thai Changthong makes no concessions to milder palates in incendiary dishes like papaya salad and Chinese broccoli, but the flavor is never dulled in the rush of endorphins. If it gets too darn hot, no worries, you can always cool down with one of their inventive saké cocktails.","Latitude":30.022718,"City":"Kyle","Longitude":-97.896294,"County":"Hays County","Accuracy Type":"street_center","Accuracy Score":0.8,"Number":"","phone":"","State":"TX","name":"Thai-Kun","moreInfoUrl":"","Street":"Rock Rose Cir","Country":"US","href":"http://www.austinchronicle.com/food/first-plates/2016/thai-kun/","region":"NorthandNorthwest"}},{"geometry":{"coordinates":[-97.747683,30.145771],"type":"Point"},"id":"Visconti Ristorante","type":"Feature","properties":{"Zip":78747,"website":"http://www.granducaaustin.com/austin-hotel-restaurants/visconti-ristorante/","address":"320 Capital of TX Hwy. S.","description":"A lot of new Italian restaurants have opened in the last year or so, but few can actually transport you to Italy. Housed in the luxurious Hotel Granduca, Visconti is a mini-vacation with the type of attentive service that is rare in America. Executive chef Tom Parlo\u2019s cuisine completes the illusion with thoughtful Northern Italian specialties.","Latitude":30.145771,"City":"Austin","Longitude":-97.747683,"County":"Travis County","Accuracy Type":"street_center","Accuracy Score":0.8,"Number":"","phone":"","State":"TX","name":"Visconti Ristorante","moreInfoUrl":"http://www.austinchronicle.com/locations/visconti-ristorante-1687871/","Street":"Capital Vw","Country":"US","href":"http://www.austinchronicle.com/food/first-plates/2016/visconti-ristorante/","region":"West"}},{"geometry":{"coordinates":[-97.821475,30.17357],"type":"Point"},"id":"Independence Fine Foods","type":"Feature","properties":{"Zip":78748,"website":"http://www.independencefinefood.com","address":"1807 W. Slaughter #100","description":"The beef cheeks are braised for hours, the pork belly is cured in-house, and the brioche are baked on-site. Independence didn\u2019t have to do any of that \u2013 after all, we are talking about sandwiches \u2013 but the effort pays off in some of the best food in all of South Austin.","Latitude":30.17357,"City":"Austin","Longitude":-97.821475,"County":"Travis County","Accuracy Type":"range_interpolation","Accuracy Score":1,"Number":1807,"phone":"512/363-5672","State":"TX","name":"Independence Fine Foods","moreInfoUrl":"http://www.austinchronicle.com/locations/independence-fine-foods-1584589/","Street":"W Slaughter Ln","Country":"US","href":"http://www.austinchronicle.com/food/first-plates/2016/independence-fine-foods/","region":"South"}},{"geometry":{"coordinates":[-97.771587,30.190705],"type":"Point"},"id":"Asiana Indian Cuisine","type":"Feature","properties":{"Zip":78745,"website":"http://www.asianaindiancuisine.com","address":"801 E. William Cannon #205","description":"In present-day Austin, we often forget that good isn\u2019t a synonym for unaffordable. Asiana\u2019s lunch buffet doesn\u2019t require a late credit card payment, but it\u2019s stocked with saag paneer, and lamb vindaloo, and rotating specials \u2013 in short, a showpiece for everything the bare-bones restaurant has to offer. If you don\u2019t leave stuffed, you don\u2019t love food.","Latitude":30.190705,"City":"Austin","Longitude":-97.771587,"County":"Travis County","Accuracy Type":"range_interpolation","Accuracy Score":1,"Number":801,"phone":"512/445-3435","State":"TX","name":"Asiana Indian Cuisine","moreInfoUrl":"http://www.austinchronicle.com/locations/asiana-indian-cuisine-1321345/","Street":"E William Cannon Dr","Country":"US","href":"http://www.austinchronicle.com/food/first-plates/2016/asiana-indian-cuisine/","region":"South"}},{"geometry":{"coordinates":[-97.836141,30.192411],"type":"Point"},"id":"Geraldine\u0027s","type":"Feature","properties":{"Zip":78745,"website":"http://www.geraldinesaustin.com/","address":"605 Davis","description":"The name might sound like one of your grandmother\u0027s quilting bee partners, but there\u0027s nothing dusty about this fourth-floor showstopper. Featuring contemporary cuisine from chef Frank Mnuk and pastry chef Callie Speer, and whimsical cocktails from beverage director Jennifer Keyser (plus local live music), this Geraldine is your guide to one of Austin\u0027s best nights on the town.","Latitude":30.192411,"City":"Austin","Longitude":-97.836141,"County":"Travis County","Accuracy Type":"street_center","Accuracy Score":0.8,"Number":"","phone":"512/476-4755","State":"TX","name":"Geraldine\u0027s","moreInfoUrl":"http://www.austinchronicle.com/locations/geraldines-1691341/","Street":"Davis Ln","Country":"US","href":"http://www.austinchronicle.com/food/first-plates/2016/geraldines/","region":"Downtown"}},{"geometry":{"coordinates":[-97.976506,30.194268],"type":"Point"},"id":"Launderette","type":"Feature","properties":{"Zip":78737,"website":"http://www.launderetteaustin.com","address":"2115 Holly","description":"Chronicle readers endowed Launderette with Best New Restaurant honors last year in the annual \u201cBest of Austin\u201d poll, and we are perpetually wowed. Sweet lump crab toast, whole branzino, and burrata with black mission figs all induce audible sighs of bliss, but we\u2019re most impressed by chef Rene Ortiz\u2019s treatment of vegetables \u2013 his transformation of humble cauliflower using pickled pear, fresno chiles, and mustard vinaigrette is otherworldly. Laura Sawicki\u2019s desserts are equally a special treat.","Latitude":30.194268,"City":"Austin","Longitude":-97.976506,"County":"Hays County","Accuracy Type":"street_center","Accuracy Score":0.8,"Number":"","phone":"512/382-1599","State":"TX","name":"Launderette","moreInfoUrl":"http://www.austinchronicle.com/locations/launderette-1611113/","Street":"Holly Ct","Country":"US","href":"http://www.austinchronicle.com/food/first-plates/2016/launderette/","region":"LowerEast"}},{"geometry":{"coordinates":[-97.994958,30.198042],"type":"Point"},"id":"Pieous","type":"Feature","properties":{"Zip":78737,"website":"http://www.fb.com/pieous","address":"12005 Hwy. 290 W.","description":"You can bet that any restaurant with bacon marmalade pizza, soft pillowy crusts on Neapolitan-style pies, and a penchant for pastrami will have a dedicated following willing to make the Dripping Springs drive. Add in giant chocolate chip cookies and draft beer, and it\u2019s practically a religion.","Latitude":30.198042,"City":"Austin","Longitude":-97.994958,"County":"Hays County","Accuracy Type":"range_interpolation","Accuracy Score":1,"Number":12005,"phone":"512/394-7041","State":"TX","name":"Pieous","moreInfoUrl":"http://www.austinchronicle.com/locations/pieous-1461715/","Street":"Us Hwy 290","Country":"US","href":"http://www.austinchronicle.com/food/first-plates/2016/pieous/","region":"West"}},{"geometry":{"coordinates":[-97.837744,30.202768],"type":"Point"},"id":"Evangeline Cafe","type":"Feature","properties":{"Zip":78745,"website":"http://www.evangelinecafe.com","address":"8106 Brodie","description":"All the Cajun classics are here \u2013 gumbo, jambalaya, étouffée, red beans and rice \u2013 but owner/chef Curtis Clarke\u2019s less traditional creations like Gold Band Creole (huge fried butterflied shrimp served on fettuccine with a spicy aïoli and a titular strip of Parmesan) steal the show. The frequent live music keeps things rockin\u2019.","Latitude":30.202768,"City":"Austin","Longitude":-97.837744,"County":"Travis County","Accuracy Type":"range_interpolation","Accuracy Score":1,"Number":8106,"phone":"512/282-2586","State":"TX","name":"Evangeline Cafe","moreInfoUrl":"http://www.austinchronicle.com/locations/evangeline-cafe-185933/","Street":"Brodie Ln","Country":"US","href":"http://www.austinchronicle.com/food/first-plates/2016/evangeline-cafe/","region":"South"}},{"geometry":{"coordinates":[-97.835253,30.207005],"type":"Point"},"id":"Valentina\u0027s Tex Mex BBQ","type":"Feature","properties":{"Zip":78745,"website":"http://www.valentinastexmexbbq.com","address":"7612 Brodie Ln.","description":"In Texas, eschewing barbecue traditions is risky, but Valentina\u2019s pulls off the rare feat of marrying tortillas and smoked meats with such finesse that even the grouchiest salt-and-pepper stalwarts could be convinced that fusion isn\u2019t a dirty word. Bonus points for bringing barbecue into the realm of breakfast and offering the best pre-11am brisket in town.","Latitude":30.207005,"City":"Austin","Longitude":-97.835253,"County":"Travis County","Accuracy Type":"range_interpolation","Accuracy Score":1,"Number":7612,"phone":"512/221-4248","State":"TX","name":"Valentina\u0027s Tex Mex BBQ","moreInfoUrl":"http://www.austinchronicle.com/locations/valentinas-tex-mex-bbq-1689165/","Street":"Brodie Ln","Country":"US","href":"http://www.austinchronicle.com/food/first-plates/2016/valentinas-tex-mex-bbq/","region":"South"}},{"geometry":{"coordinates":[-97.796154,30.218679],"type":"Point"},"id":"Full English","type":"Feature","properties":{"Zip":78745,"website":"http://www.fullenglishfood.com","address":"2000 Southern Oaks","description":"The ramshackle dining room could have been decorated by one of Hyacinth Bucket\u2019s sisters, and that\u2019s only one of the many charms. Gorgeous pasties, fish and chips, and traditional breakfasts rule here, all handmade using local ingredients.","Latitude":30.218679,"City":"Austin","Longitude":-97.796154,"County":"Travis County","Accuracy Type":"range_interpolation","Accuracy Score":1,"Number":2000,"phone":"512/240-2748","State":"TX","name":"Full English","moreInfoUrl":"http://www.austinchronicle.com/locations/full-english-1259762/","Street":"Southern Oaks Dr","Country":"US","href":"http://www.austinchronicle.com/food/first-plates/2016/full-english/","region":"South"}},{"geometry":{"coordinates":[-97.788191,30.230422],"type":"Point"},"id":"Veracruz All Natural","type":"Feature","properties":{"Zip":78704,"website":"http://www.veracruztacos.com","address":"4208 Manchaca","description":"In the preliminary round of the Chronicle\u2019s breakfast taco competition, Veracruz beat out Torchy\u2019s 60% to 40% \u2013 no easy feat. In addition to excellent Mexican hand pies, Veracruz slings incredible tortas, and the original location on Cesar Chavez still whips up fresh fruit smoothies and aguas frescas.","Latitude":30.230422,"City":"Austin","Longitude":-97.788191,"County":"Travis County","Accuracy Type":"range_interpolation","Accuracy Score":1,"Number":4208,"phone":"512/629-8238","State":"TX","name":"Veracruz All Natural","moreInfoUrl":"http://www.austinchronicle.com/locations/veracruz-all-natural-1604744/","Street":"Manchaca Rd","Country":"US","href":"http://www.austinchronicle.com/food/first-plates/2016/veracruz-all-natural/","region":"South"}},{"geometry":{"coordinates":[-97.743721,30.234515],"type":"Point"},"id":"The Austin Beer Garden Brewing Co.","type":"Feature","properties":{"Zip":78704,"website":"http://www.theabgb.com","address":"1305 W. Oltorf","description":"With one of the biggest and best patios in town, bold and beautiful pizza pies, and an on-site brewery, it\u2019s no wonder this warehouse spot has become a favorite hang spot. Sourcing from Johnson\u2019s Backyard Garden and other local farms, the possibilities are endless.","Latitude":30.234515,"City":"Austin","Longitude":-97.743721,"County":"Travis County","Accuracy Type":"range_interpolation","Accuracy Score":1,"Number":1305,"phone":"512/298-2242","State":"TX","name":"The Austin Beer Garden Brewing Co.","moreInfoUrl":"http://www.austinchronicle.com/locations/the-austin-beer-garden-brewing-co-1499921/","Street":"E Oltorf St","Country":"US","href":"http://www.austinchronicle.com/food/first-plates/2016/the-austin-beer-garden-brewing-co/","region":"SouthCongressandSouthFirst"}},{"geometry":{"coordinates":[-97.750134,30.24788],"type":"Point"},"id":"Otoko","type":"Feature","properties":{"Zip":78704,"website":"http://www.otokoaustin.com","address":"1603 S. Congress","description":"Like Buccellati engagement rings or the Olsen twins, good things come in small packages. Case in point: chef Yoshi Okai\u2019s 12-seat tasting table in the South Congress Hotel where every detail \u2013 from the napkins to the impeccable omakase \u2013 has been carefully considered. It\u2019s not cheap, but treat yo\u2019self.","Latitude":30.24788,"City":"Austin","Longitude":-97.750134,"County":"Travis County","Accuracy Type":"range_interpolation","Accuracy Score":0.9,"Number":1603,"phone":"","State":"TX","name":"Otoko","moreInfoUrl":"http://www.austinchronicle.com/locations/otoko-1842679/","Street":"Congress Ave S","Country":"US","href":"http://www.austinchronicle.com/food/first-plates/2016/otoko/","region":"SouthCongressandSouthFirst"}},{"geometry":{"coordinates":[-97.750134,30.24788],"type":"Point"},"id":"Central Standard Kitchen \u0026 Bar","type":"Feature","properties":{"Zip":78704,"website":"http://www.centralstandardaustin.com","address":"1603 S. Congress","description":"How to land a deal: Take your client to Central Standard. Sit at the glistening bar, away from the hubbub of the dining room. Order one Standard Platter stocked with oysters, lobster, and clams, an order of the decadent potato bread, and two seriously boozy Salted Caramel cocktails. Clink your glasses and sign on the line. You tycoon, you.","Latitude":30.24788,"City":"Austin","Longitude":-97.750134,"County":"Travis County","Accuracy Type":"range_interpolation","Accuracy Score":0.9,"Number":1603,"phone":"512/942-0823","State":"TX","name":"Central Standard Kitchen \u0026 Bar","moreInfoUrl":"http://www.austinchronicle.com/locations/central-standard-1821943/","Street":"Congress Ave S","Country":"US","href":"http://www.austinchronicle.com/food/first-plates/2016/central-standard/","region":"SouthCongressandSouthFirst"}},{"geometry":{"coordinates":[-97.750134,30.24788],"type":"Point"},"id":"Café No Sé","type":"Feature","properties":{"Zip":78704,"website":"http://www.austinchronicle.com/locations/caf-no-s-1670319/","address":"1603 S. Congress","description":"You could easily play hipster food bingo with Café No Sé\u2019s menu (Avocado toast? Check! Kale salad? Yup!) but the execution here is flawless, simultaneously excessive and elegant. #foodporn-worthy bites for the Instagirl in your life that taste good enough that you don\u2019t mind putting up with her.","Latitude":30.24788,"City":"Austin","Longitude":-97.750134,"County":"Travis County","Accuracy Type":"range_interpolation","Accuracy Score":0.9,"Number":1603,"phone":"","State":"TX","name":"Café No Sé","moreInfoUrl":"","Street":"Congress Ave S","Country":"US","href":"http://www.austinchronicle.com/food/first-plates/2016/caf-no-s/","region":"SouthCongressandSouthFirst"}},{"geometry":{"coordinates":[-97.750444,30.247899],"type":"Point"},"id":"Vespaio","type":"Feature","properties":{"Zip":78704,"website":"http://www.austinvespaio.com","address":"1610 S. Congress","description":"A SoCo staple from before it was called SoCo, the elegant eatery takes its name from the buzzing dining room. It\u2019s classic Italian, with walls of wine, in-house butchery, a long list of house-made delights, and thoughtfully sourced ingredients. We love the calamari fritti arrabbiata, Scampi con Salsa all\u2019Aglio, and the Sicilian cheesecake, so very much.","Latitude":30.247899,"City":"Austin","Longitude":-97.750444,"County":"Travis County","Accuracy Type":"range_interpolation","Accuracy Score":0.9,"Number":1610,"phone":"512/441-6100","State":"TX","name":"Vespaio","moreInfoUrl":"http://www.austinchronicle.com/locations/vespaio-46351/","Street":"Congress Ave S","Country":"US","href":"http://www.austinchronicle.com/food/first-plates/2016/vespaio/","region":"VirginiaB.WoodHallofFame"}},{"geometry":{"coordinates":[-97.749492,30.249647],"type":"Point"},"id":"Home Slice Pizza","type":"Feature","properties":{"Zip":78704,"website":"http://www.homeslicepizza.com","address":"1415 S. Congress","description":"This beloved hang spot might have the best mascot in town: a queen of pies with rockin\u2019 \u2019stache and a sly wink. She knows why she rules \u2013 her New York-style and Sicilian pizzas are above reproach, and the garlic knots can build empires. But that doesn\u2019t mean she won\u2019t treat you like royalty too.","Latitude":30.249647,"City":"Austin","Longitude":-97.749492,"County":"Travis County","Accuracy Type":"range_interpolation","Accuracy Score":0.9,"Number":1415,"phone":"512/444-7437","State":"TX","name":"Home Slice Pizza","moreInfoUrl":"http://www.austinchronicle.com/locations/home-slice-pizza-282875/","Street":"Congress Ave S","Country":"US","href":"http://www.austinchronicle.com/food/first-plates/2016/home-slice-pizza/","region":"SouthCongressandSouthFirst"}},{"geometry":{"coordinates":[-97.749592,30.249672],"type":"Point"},"id":"Hopdoddy Burger Bar","type":"Feature","properties":{"Zip":78704,"website":"http://www.hopdoddy.com","address":"1400 S. Congress","description":"It\u2019s hard to resist the sirens\u2019 call of a big juicy handcrafted burger, especially from a place that offers endless variations in toppings and proteins. Even though this Austin original opens its fourth location soon, it still packs the house \u2013 proving that craft burgers are more than just a trend.","Latitude":30.249672,"City":"Austin","Longitude":-97.749592,"County":"Travis County","Accuracy Type":"range_interpolation","Accuracy Score":0.9,"Number":1400,"phone":"512/243-7505","State":"TX","name":"Hopdoddy Burger Bar","moreInfoUrl":"http://www.austinchronicle.com/locations/hopdoddy-burger-bar-1098249/","Street":"Congress Ave S","Country":"US","href":"http://www.austinchronicle.com/food/first-plates/2016/hopdoddy-burger-bar/","region":"SouthCongressandSouthFirst"}},{"geometry":{"coordinates":[-97.70766,30.251574],"type":"Point"},"id":"Jacoby\u0027s Restaurant \u0026 Mercantile","type":"Feature","properties":{"Zip":78702,"website":"http://www.jacobysaustin.com","address":"3235 E. Cesar Chavez","description":"Want to impress your parents the first time they visit you in Austin? Take them to Jacoby\u2019s. Chef Albert Gonzalez\u2019s elevated, but not precious cuisine will impress your mom, and the breathtaking views and decor of the patio will wow your other mom. It\u2019s guaranteed to put them in a good mood before you ask for just a little more money.","Latitude":30.251574,"City":"Austin","Longitude":-97.70766,"County":"Travis County","Accuracy Type":"range_interpolation","Accuracy Score":1,"Number":3235,"phone":"512/366-5808","State":"TX","name":"Jacoby\u0027s Restaurant \u0026 Mercantile","moreInfoUrl":"http://www.austinchronicle.com/locations/jacobys-restaurant-and-mercantile-1563796/","Street":"E Cesar Chavez St","Country":"US","href":"http://www.austinchronicle.com/food/first-plates/2016/jacobys-restaurant-and-mercantile/","region":"LowerEast"}},{"geometry":{"coordinates":[-97.748923,30.251987],"type":"Point"},"id":"Snack Bar","type":"Feature","properties":{"Zip":78704,"website":"http://www.snackbaraustin.com","address":"1224 S. Congress","description":"Shopping is hard work, but SoCo has a time-honored respite. A diner space adjacent to neighbor-with-the-best-sign Austin Motel for 70 years, this revamped space offers the best in tasty, consciously sourced and created eats and drinks. Rest your weary dogs, support local farms, and get in some stellar people-watching.","Latitude":30.251987,"City":"Austin","Longitude":-97.748923,"County":"Travis County","Accuracy Type":"range_interpolation","Accuracy Score":0.9,"Number":1224,"phone":"512/445-2626","State":"TX","name":"Snack Bar","moreInfoUrl":"http://www.austinchronicle.com/locations/snack-bar-928007/","Street":"Congress Ave S","Country":"US","href":"http://www.austinchronicle.com/food/first-plates/2016/snack-bar/","region":"SouthCongressandSouthFirst"}},{"geometry":{"coordinates":[-97.717699,30.254856],"type":"Point"},"id":"Juniper","type":"Feature","properties":{"Zip":78702,"website":"http://www.juniperaustin.com","address":"2400 E. Cesar Chavez #304","description":"Executive chef and partner Nicholas Yanes\u2019 handsome Northern Italian eatery may be new, but it has already made its mark in the Eastside\u2019s budding fine-dining scene. The kitchen team prepares delicate pasta dishes and innovative small plates that nod to Texas, like risotto with local strawberry, avocado, and mint. Beverage director Nic Vascocu\u2019s refined drink menus are perfectly suited for the serene hideaway setting.","Latitude":30.254856,"City":"Austin","Longitude":-97.717699,"County":"Travis County","Accuracy Type":"range_interpolation","Accuracy Score":1,"Number":2400,"phone":"512/220-9421","State":"TX","name":"Juniper","moreInfoUrl":"http://www.austinchronicle.com/locations/juniper-1687885/","Street":"E Cesar Chavez St","Country":"US","href":"http://www.austinchronicle.com/food/first-plates/2016/juniper/","region":"LowerEast"}},{"geometry":{"coordinates":[-97.761915,30.255551],"type":"Point"},"id":"VOX Table","type":"Feature","properties":{"Zip":78704,"website":"http://www.voxtableaustin.com","address":"1100 S. Lamar Blvd #2140","description":"The seasonally changing yet always-gorgeous platings (read: highly \u2019grammable) have us coming back to VOX on the reg. Chef Joe Anguiano\u2019s albacore tuna tartare scooped with a delicate potato lavash is divine, and smoked Tasmanian trout at brunch had us swimming. Beverage director JR Mocanu is also doing some very innovative things behind the bar, utilizing house-made ingredients like smoked pineapple ginger shrub and tangerine tincture.","Latitude":30.255551,"City":"Austin","Longitude":-97.761915,"County":"Travis County","Accuracy Type":"range_interpolation","Accuracy Score":1,"Number":1100,"phone":"512/375-4869","State":"TX","name":"VOX Table","moreInfoUrl":"http://www.austinchronicle.com/locations/vox-table-1635859/","Street":"S Lamar Blvd","Country":"US","href":"http://www.austinchronicle.com/food/first-plates/2016/vox-table/","region":"SouthLamarandBartonSprings"}},{"geometry":{"coordinates":[-97.761915,30.255551],"type":"Point"},"id":"Cantine","type":"Feature","properties":{"Zip":78704,"website":"http://www.cantineaustin.com","address":"1100 S. Lamar Blvd #2115","description":"If restaurants were greatest hits albums, Cantine would be burning up the charts. Hospitality veterans Lisa and Emmett Fox borrowed elements from their Hyde Park classic, Asti, and sorely missed Hollywood Regency stunner Fino for their new venture in the Lamar Union development. The result is an innovative Mediterranean restaurant with a bright dining room and a serious beverage program that couldn\u2019t be more contemporary.","Latitude":30.255551,"City":"Austin","Longitude":-97.761915,"County":"Travis County","Accuracy Type":"range_interpolation","Accuracy Score":1,"Number":1100,"phone":"","State":"TX","name":"Cantine","moreInfoUrl":"http://www.austinchronicle.com/locations/cantine-1639802/","Street":"S Lamar Blvd","Country":"US","href":"http://www.austinchronicle.com/food/first-plates/2016/cantine/","region":"SouthLamarandBartonSprings"}},{"geometry":{"coordinates":[-97.723326,30.256513],"type":"Point"},"id":"Arlo\u0027s","type":"Feature","properties":{"Zip":78702,"website":"http://www.arlostruck.com","address":"2001 E. Cesar Chavez","description":"Curbing carnivorous cravings has never been so easy. When even the most devout meat-eater yearns for the Bac\u2019n Cheeze Burger from Arlo\u2019s, you know the kitchen\u2019s doing something right. This fleet now satisfies appetites all across town with its three trucks, but we personally pine for the Chik\u2019n Tacos and tots washed down with a Gin Henry at Drinks Lounge.","Latitude":30.256513,"City":"Austin","Longitude":-97.723326,"County":"Travis County","Accuracy Type":"range_interpolation","Accuracy Score":1,"Number":2001,"phone":"512/840-1840","State":"TX","name":"Arlo\u0027s","moreInfoUrl":"http://www.austinchronicle.com/locations/arlos-1842677/","Street":"E Cesar Chavez St","Country":"US","href":"http://www.austinchronicle.com/food/first-plates/2016/arlos/","region":"LowerEast"}},{"geometry":{"coordinates":[-97.724464,30.257233],"type":"Point"},"id":"Toaster","type":"Feature","properties":{"Zip":78702,"website":"http://www.toasterfoodtruck.wix.com/toastertrailer","address":"1910 E. Cesar Chavez","description":"The description of the baked mac on the menu says it all: \u201cIt\u2019s fucking delightful.\u201d From the avocado crema-topped Scotch eggs at brunch to classic cheese-and-potato pierogies at dinner, Toaster is all about hitting your pleasure centers \u2013 proving that in these tweezered and bespoke culinary times, food is still about how it makes you feel.","Latitude":30.257233,"City":"Austin","Longitude":-97.724464,"County":"Travis County","Accuracy Type":"range_interpolation","Accuracy Score":1,"Number":1910,"phone":"","State":"TX","name":"Toaster","moreInfoUrl":"http://www.austinchronicle.com/locations/toaster-1842681/","Street":"E Cesar Chavez St","Country":"US","href":"http://www.austinchronicle.com/food/first-plates/2016/toaster/","region":"LowerEast"}},{"geometry":{"coordinates":[-97.724499,30.257248],"type":"Point"},"id":"la Barbecue","type":"Feature","properties":{"Zip":78702,"website":"http://www.labarbecue.com","address":"1906 E. Cesar Chavez","description":"Much has been written about pitmaster John Lewis\u2019 way with brisket and ribs, and we won\u2019t deny the power in the smoke. But we will take a moment to herald genius sandwiches like La Frito Loco. It may start with pulled pork, but it adds chopped beef, corn chips, black bean salad, chipotle slaw, cheese, and jalapeños. If there\u2019s anything more Texan, we haven\u2019t seen it.","Latitude":30.257248,"City":"Austin","Longitude":-97.724499,"County":"Travis County","Accuracy Type":"range_interpolation","Accuracy Score":1,"Number":1906,"phone":"512/605-9696","State":"TX","name":"la Barbecue","moreInfoUrl":"http://www.austinchronicle.com/locations/la-barbecue-1447989/","Street":"E Cesar Chavez St","Country":"US","href":"http://www.austinchronicle.com/food/first-plates/2016/la-barbecue/","region":"LowerEast"}},{"geometry":{"coordinates":[-97.739192,30.257525],"type":"Point"},"id":"Emmer \u0026 Rye","type":"Feature","properties":{"Zip":78701,"website":"http://www.emmerandrye.com","address":"51 Rainey #110","description":"You know those annoying text threads that pop up every weekend? Where one friend wants to get crazy on Rainey, another wants to keep it classy, and a third just wants to eat as much as possible? Emmer \u0026 Rye is here to save the day, with small bites, big plates, and roaming dim sum carts filled with one-off creations.","Latitude":30.257525,"City":"Austin","Longitude":-97.739192,"County":"Travis County","Accuracy Type":"range_interpolation","Accuracy Score":1,"Number":51,"phone":"512/366-5530","State":"TX","name":"Emmer \u0026 Rye","moreInfoUrl":"http://www.austinchronicle.com/locations/emmer-and-rye-1687874/","Street":"Rainey St","Country":"US","href":"http://www.austinchronicle.com/food/first-plates/2016/emmer-and-rye/","region":"Downtown"}},{"geometry":{"coordinates":[-97.729658,30.258652],"type":"Point"},"id":"Bufalina","type":"Feature","properties":{"Zip":78702,"website":"http://www.bufalinapizza.com","address":"1519 E. Cesar Chavez","description":"A custom-built 900-degree pizza oven takes up a sizable portion of Bufalina\u2019s dining room, but they pack the rest of the space elbow-to-elbow with Austinites hungry for the most delicate Neapolitan crust in the city. The scope ranges from subtle sure shots like their must-order margherita to more ambitious options like braised goat with Catalan chèvre. Need more space and shorter waits? Try Bufalina Due on Burnet Road.","Latitude":30.258652,"City":"Austin","Longitude":-97.729658,"County":"Travis County","Accuracy Type":"range_interpolation","Accuracy Score":1,"Number":1519,"phone":"512/524-2523","State":"TX","name":"Bufalina","moreInfoUrl":"http://www.austinchronicle.com/locations/bufalina-1486233/","Street":"E Cesar Chavez St","Country":"US","href":"http://www.austinchronicle.com/food/first-plates/2016/bufalina/","region":"LowerEast"}},{"geometry":{"coordinates":[-97.738524,30.259262],"type":"Point"},"id":"Banger\u0027s Sausage House \u0026 Beer Garden","type":"Feature","properties":{"Zip":78701,"website":"http://www.bangersaustin.com","address":"79 Rainey","description":"The affable conviviality of this Rainey Street standby belies the seriousness of their sausage menu, which is as wide-ranging as it is delicious. And nothing goes better with a mimosa the size of your head than a plate of their biscuits smothered in outrageously creamy gravy.","Latitude":30.259262,"City":"Austin","Longitude":-97.738524,"County":"Travis County","Accuracy Type":"range_interpolation","Accuracy Score":1,"Number":79,"phone":"512/386-1656","State":"TX","name":"Banger\u0027s Sausage House \u0026 Beer Garden","moreInfoUrl":"http://www.austinchronicle.com/locations/bangers-sausage-house-and-beer-garden-1365334/","Street":"Rainey St","Country":"US","href":"http://www.austinchronicle.com/food/first-plates/2016/bangers-sausage-house-and-beer-garden/","region":"Downtown"}},{"geometry":{"coordinates":[-97.738367,30.259745],"type":"Point"},"id":"El Naranjo","type":"Feature","properties":{"Zip":78701,"website":"http://www.elnaranjo-restaurant.com","address":"85 Rainey","description":"With its emphasis on intricate spicing and sauces complex enough to rival French haute cuisine, Oaxacan food is one of the driving forces behind Mexican cuisine\u0027s recent designation as a UNESCO world heritage intangible resource. And El Naranjo, under the astute direction of chef Iliana de la Vega, is the best place in Austin to try it for yourself.","Latitude":30.259745,"City":"Austin","Longitude":-97.738367,"County":"Travis County","Accuracy Type":"range_interpolation","Accuracy Score":1,"Number":85,"phone":"512/474-2776","State":"TX","name":"El Naranjo","moreInfoUrl":"http://www.austinchronicle.com/locations/el-naranjo-1026989/","Street":"Rainey St","Country":"US","href":"http://www.austinchronicle.com/food/first-plates/2016/el-naranjo/","region":"Downtown"}},{"geometry":{"coordinates":[-97.760019,30.261373],"type":"Point"},"id":"Juliet Ristorante","type":"Feature","properties":{"Zip":78704,"website":"http://www.juliet-austin.com","address":"1500 Barton Springs Rd.","description":"We can\u2019t wait for drier weather so we can fold Juliet\u2019s gorgeous patio into our happy hour rotation. From the polpo and pesce crudo to the pizzas and handmade pastas to the ample parking lot, Juliet beckons us back for her well-executed Italian dishes and stunning decor. The olive oil tastings offer a true touch of Tuscany.","Latitude":30.261373,"City":"Austin","Longitude":-97.760019,"County":"Travis County","Accuracy Type":"range_interpolation","Accuracy Score":1,"Number":1500,"phone":"512/479-1800","State":"TX","name":"Juliet Ristorante","moreInfoUrl":"http://www.austinchronicle.com/locations/juliet-ristorante-1650255/","Street":"Barton Springs Rd","Country":"US","href":"http://www.austinchronicle.com/food/first-plates/2016/juliet-ristorante/","region":"SouthLamarandBartonSprings"}},{"geometry":{"coordinates":[-97.747703,30.263793],"type":"Point"},"id":"Daito","type":"Feature","properties":{"Zip":78701,"website":"http://www.restaurantdaito.com/","address":"2716 1/2 Guadalupe St.","description":"This humble mom and pop\u0027s shop highlights exquisite handmade udon that\u0027s difficult to find outside Japan. Their meticulously prepared dashi broth brings deep umami to comfort staples like chawanmushi. The manager Yoshi, currently pursuing saké sommelier licensure in Japan, enjoys introducing diners to lesser-known premium varieties.","Latitude":30.263793,"City":"Austin","Longitude":-97.747703,"County":"Travis County","Accuracy Type":"range_interpolation","Accuracy Score":1,"Number":"Sat Jan 01 18:00:00 GMT-06:00 2716","phone":"512/474-7770","State":"TX","name":"Daito","moreInfoUrl":"http://www.austinchronicle.com/locations/daito-1672902/","Street":"Guadalupe St","Country":"US","href":"http://www.austinchronicle.com/food/first-plates/2016/daito/","region":"Campus"}},{"geometry":{"coordinates":[-97.732024,30.264017],"type":"Point"},"id":"Fukumoto","type":"Feature","properties":{"Zip":78702,"website":"http://www.fukumotoaustin.com","address":"514 Medina","description":"Chef and owner Kazu Fukumoto embarked on an ambitious undertaking by incorporating an izakaya concept (which he defines as a \u201cJapanese gastropub\u201d) with yakitori (binchotan grilled skewers) and Edomae sushi that showcases top-notch fish. The chic saké-centric hangout is a go-to for unconventional eats like house-made tofu, firefly squid, and even grilled chicken butts.","Latitude":30.264017,"City":"Austin","Longitude":-97.732024,"County":"Travis County","Accuracy Type":"range_interpolation","Accuracy Score":1,"Number":514,"phone":"512/770-6880","State":"TX","name":"Fukumoto","moreInfoUrl":"http://www.austinchronicle.com/locations/fukumoto-1686735/","Street":"Medina St","Country":"US","href":"http://www.austinchronicle.com/food/first-plates/2016/fukumoto/","region":"LowerEast"}},{"geometry":{"coordinates":[-97.743673,30.26535],"type":"Point"},"id":"Counter 3. Five. VII","type":"Feature","properties":{"Zip":78701,"website":"http://www.counter3fivevii.com","address":"315 Congress #100","description":"Intimate and personal, Counter 3. Five. VII is the perfect spot for a date where you want to show off your restrained good taste, or a solo outing when you\u0027re in the mood to let someone else make the hard decisions. Just choose the three-, five-, or seven-course tasting menu, then sit back and enjoy.","Latitude":30.26535,"City":"Austin","Longitude":-97.743673,"County":"Travis County","Accuracy Type":"range_interpolation","Accuracy Score":1,"Number":315,"phone":"512/291-3327","State":"TX","name":"Counter 3. Five. VII","moreInfoUrl":"http://www.austinchronicle.com/locations/counter-3-five-vii-1633287/","Street":"Congress Ave","Country":"US","href":"http://www.austinchronicle.com/food/first-plates/2016/counter-3-five-vii/","region":"Downtown"}},{"geometry":{"coordinates":[-97.743673,30.26535],"type":"Point"},"id":"Swift\u0027s Attic","type":"Feature","properties":{"Zip":78701,"website":"http://www.swiftsattic.com","address":"315 Congress","description":"Swift\u0027s Attic has one of the best happy hours in town, where you can wash down your smoked edamame and pop rocks with a couple of New Fashioneds. The menu here is elegant and playful, rife with unexpected pairings and bold flavors. It\u0027s the kind of place you should take a date to see if they have a good sense of humor.","Latitude":30.26535,"City":"Austin","Longitude":-97.743673,"County":"Travis County","Accuracy Type":"range_interpolation","Accuracy Score":1,"Number":315,"phone":"512/482-8842","State":"TX","name":"Swift\u0027s Attic","moreInfoUrl":"http://www.austinchronicle.com/locations/swifts-attic-1321306/","Street":"Congress Ave","Country":"US","href":"http://www.austinchronicle.com/food/first-plates/2016/swifts-attic/","region":"Downtown"}},{"geometry":{"coordinates":[-97.741584,30.267766],"type":"Point"},"id":"The Driskill Grill","type":"Feature","properties":{"Zip":78701,"website":"http://www.driskillgrill.com","address":"604 Brazos","description":"Suffering from quinoa fatigue? Get thee to the Driskill, where you can hide out in a dark wood-paneled room and have the sort of well-made, honest meal your grandfather would approve of: iceberg wedge salad and osso buco or a dry aged steak. And, of course there\u0027s crème brûlée for dessert.","Latitude":30.267766,"City":"Austin","Longitude":-97.741584,"County":"Travis County","Accuracy Type":"range_interpolation","Accuracy Score":1,"Number":604,"phone":"512/391-7162","State":"TX","name":"The Driskill Grill","moreInfoUrl":"http://www.austinchronicle.com/locations/the-driskill-grill-48117/","Street":"Brazos St","Country":"US","href":"http://www.austinchronicle.com/food/first-plates/2016/the-driskill-grill/","region":"Downtown"}},{"geometry":{"coordinates":[-97.727822,30.268507],"type":"Point"},"id":"Paperboy","type":"Feature","properties":{"Zip":78702,"website":"http://www.paperboyaustin.com","address":"1203 E. 11th","description":"The humble, gravel-lot breakfast trailer sells out before many Austin slackers have left the house, but their brioche B.E.C. and steak \u0026 egg sandwiches are worth setting an alarm for. If the sandwiches are 86\u2019d, the requisite 2016-style toasts (savory with goat chorizo or sweet with ricotta and tangerine marmalade) are equally eye-opening.","Latitude":30.268507,"City":"Austin","Longitude":-97.727822,"County":"Travis County","Accuracy Type":"range_interpolation","Accuracy Score":1,"Number":1203,"phone":"","State":"TX","name":"Paperboy","moreInfoUrl":"http://www.austinchronicle.com/locations/paperboy-1836259/","Street":"E 11th St","Country":"US","href":"http://www.austinchronicle.com/food/first-plates/2016/paperboy/","region":"LowerEast"}},{"geometry":{"coordinates":[-97.785975,30.269972],"type":"Point"},"id":"Chinatown","type":"Feature","properties":{"Zip":78746,"website":"http://www.austinchinatown.com","address":"2712 Bee Caves Rd","description":"In 2013, after a couple of years of health problems, owner Ronald Cheng had an opportunity to reopen in the building where Chinatown started in 1983. He kept some of the former menu items, added some delicious new ones, and gave the whole place a new look \u2013 simultaneously reinvigorating his brand and cementing his Austin culinary legacy. Austin is full of restaurateurs. Cheng is a giant.","Latitude":30.269972,"City":"Austin","Longitude":-97.785975,"County":"Travis County","Accuracy Type":"range_interpolation","Accuracy Score":1,"Number":2712,"phone":"512/328-6588","State":"TX","name":"Chinatown","moreInfoUrl":"http://www.austinchronicle.com/locations/chinatown-1644058/","Street":"Bee Caves Rd","Country":"US","href":"http://www.austinchronicle.com/food/first-plates/2016/chinatown/","region":"VirginiaB.WoodHallofFame"}},{"geometry":{"coordinates":[-97.772953,30.278556],"type":"Point"},"id":"Fabi + Rosi","type":"Feature","properties":{"Zip":78703,"website":"http://www.fabiandrosi.com","address":"509 Hearn","description":"Seems like no matter how many \u201chidden gem\u201d lists Fabi + Rosi makes, there\u2019s still never a long waitlist to deter us from dining at this European restaurant housed in a charming Craftsman bungalow. No complaints here \u2013 the schnitzel is worth the wait if you haven\u2019t already tried it, as is the simple but wholly satisfying Ich Liebe Tiere dish of locally sourced vegetables.","Latitude":30.278556,"City":"Austin","Longitude":-97.772953,"County":"Travis County","Accuracy Type":"range_interpolation","Accuracy Score":1,"Number":509,"phone":"512/236-0642","State":"TX","name":"Fabi + Rosi","moreInfoUrl":"http://www.austinchronicle.com/locations/fabi-rosi-790269/","Street":"Hearn St","Country":"US","href":"http://www.austinchronicle.com/food/first-plates/2016/fabi-rosi/","region":"West"}},{"geometry":{"coordinates":[-97.743844,30.279325],"type":"Point"},"id":"Olamaie","type":"Feature","properties":{"Zip":78701,"website":"http://www.olamaieaustin.com","address":"1610 San Antonio St.","description":"We are not saying that the phrase \"Jesus is a biscuit\" has anything to do with Olamaie, but if any one biscuit is worthy of such religious thoughts, it\u0027s the one made by chefs Michael Fojtasek and Grae Nonas. The rest of the contemporary Southern \u2013 from pickles to chicken dumplings \u2013 have us testifying, too.","Latitude":30.279325,"City":"Austin","Longitude":-97.743844,"County":"Travis County","Accuracy Type":"range_interpolation","Accuracy Score":1,"Number":1610,"phone":"512/474-2796","State":"TX","name":"Olamaie","moreInfoUrl":"http://www.austinchronicle.com/locations/olamaie-1591562/","Street":"San Antonio St","Country":"US","href":"http://www.austinchronicle.com/food/first-plates/2016/olamaie/","region":"Campus"}},{"geometry":{"coordinates":[-97.745174,30.282813],"type":"Point"},"id":"Goodall\u0027s Kitchen","type":"Feature","properties":{"Zip":78705,"website":"http://www.goodallskitchen.com","address":"1900 Rio Grande St.","description":"Nestled in the lobby of the historic Hotel Ella, Goodall\u0027s Kitchen is a welcome refuge from the ubiquitous spread of pizza joints and taco shops of West Campus. They have rotating seasonal offerings like pork belly tater tots, and their cocktail list is expansive and well thought out. Need we say more?","Latitude":30.282813,"City":"Austin","Longitude":-97.745174,"County":"Travis County","Accuracy Type":"range_interpolation","Accuracy Score":1,"Number":1900,"phone":"512/628-4200","State":"TX","name":"Goodall\u0027s Kitchen","moreInfoUrl":"http://www.austinchronicle.com/locations/goodalls-kitchen-and-bar-1495034/","Street":"Rio Grande St","Country":"US","href":"http://www.austinchronicle.com/food/first-plates/2016/goodalls-kitchen-and-bar/","region":"Campus"}},{"geometry":{"coordinates":[-97.718097,30.284314],"type":"Point"},"id":"Patrizi\u0027s","type":"Feature","properties":{"Zip":78722,"website":"http://www.patrizis.com","address":"2307 Manor Rd.","description":"Embodying the idea that simplicity is a marker of sophistication, the made-to-order fresh pasta is one of our favorites in town. Open for dinner, the unassuming food truck in the Butterfly Bar courtyard boasts house-made ricotta, local veggies and eggs, and dishes designed around time-honored family flavors. The Pomodoro\u0027s roasted romas and garlic confit is worth a weekly trip.","Latitude":30.284314,"City":"Austin","Longitude":-97.718097,"County":"Travis County","Accuracy Type":"range_interpolation","Accuracy Score":1,"Number":2307,"phone":"512/522-4834","State":"TX","name":"Patrizi\u0027s","moreInfoUrl":"http://www.austinchronicle.com/locations/patrizis-1476419/","Street":"Manor Rd","Country":"US","href":"http://www.austinchronicle.com/food/first-plates/2016/patrizis/","region":"East"}},{"geometry":{"coordinates":[-97.717309,30.284753],"type":"Point"},"id":"Unit-D Pizzeria","type":"Feature","properties":{"Zip":78722,"website":"http://www.unitdpizzeria.com/","address":"2406 Manor Rd.","description":"The craveworthy menu offers Neapolitan pizza topped with fresh ingredients ranging from classic to creative, but it isn\u0027t just about pizza at Unit-D. The chic ambience and excellent local beer and wine selection pair well with the 27-year-old sourdough starter, charcuterie, wood-fired olives, lovely Caesar salads, and quietly innovative desserts.","Latitude":30.284753,"City":"Austin","Longitude":-97.717309,"County":"Travis County","Accuracy Type":"range_interpolation","Accuracy Score":1,"Number":2406,"phone":"512/524-1922","State":"TX","name":"Unit-D Pizzeria","moreInfoUrl":"http://www.austinchronicle.com/locations/unit-d-pizzeria-1659832/","Street":"Manor Rd","Country":"US","href":"http://www.austinchronicle.com/food/first-plates/2016/unit-d-pizzeria/","region":"East"}},{"geometry":{"coordinates":[-97.717309,30.284753],"type":"Point"},"id":"Dai Due Butcher Shop \u0026 Supper Club","type":"Feature","properties":{"Zip":78722,"website":"http://www.daidue.com","address":"2406 Manor Rd.","description":"Most Austin restaurants are concerned with sustainability, but few walk the walk as thoroughly as chef/owner Jesse Griffiths. From Gulf seafood to locally sourced yaupon tea and loquats foraged across town, everything about Dai Due is seasonal and local (not to mention delicious). If there is such a thing as a wholly Austin cuisine, this is it.","Latitude":30.284753,"City":"Austin","Longitude":-97.717309,"County":"Travis County","Accuracy Type":"range_interpolation","Accuracy Score":1,"Number":2406,"phone":"512/524-0688","State":"TX","name":"Dai Due Butcher Shop \u0026 Supper Club","moreInfoUrl":"http://www.austinchronicle.com/locations/dai-due-1595897/","Street":"Manor Rd","Country":"US","href":"http://www.austinchronicle.com/food/first-plates/2016/dai-due/","region":"East"}},{"geometry":{"coordinates":[-97.722461,30.2856],"type":"Point"},"id":"Don Japanese Food Truck","type":"Feature","properties":{"Zip":78722,"website":"http://www.fb.com/don-japanese-food-truck-692738280861004","address":"28th \u0026 Guadalupe","description":"Every day, hordes of UT students line up for Don Japanese\u0027s pork belly or Veggie King bowls. Why? Because you are not likely to find a more harmonious marriage of price, quality, and taste (so what, it\u0027s a triad) in all of Austin. A brief hiatus has us patiently waiting for May 12.","Latitude":30.2856,"City":"Austin","Longitude":-97.722461,"County":"Travis County","Accuracy Type":"street_center","Accuracy Score":1,"Number":"","phone":"512/725-3686","State":"TX","name":"Don Japanese Food Truck","moreInfoUrl":"http://www.austinchronicle.com/locations/don-japanese-food-truck-1826678/","Street":"E 28th St","Country":"US","href":"http://www.austinchronicle.com/food/first-plates/2016/don-japanese-food-truck/","region":"Campus"}},{"geometry":{"coordinates":[-97.704304,30.288733],"type":"Point"},"id":"Contigo","type":"Feature","properties":{"Zip":78723,"website":"http://www.contigotexas.com/austin","address":"2027 Anchor","description":"Boasting one of Austin\u0027s best outdoor spaces \u2013 modeled after its namesake ranch \u2013 and a creative assortment of Texas tapas, this is a pitch-perfect happy hour spot. It fills up fast with the neighborhood crowd, but you can sip an El Pepino, crunch popcorn and olive bar snacks, and throw horseshoes while you wait.","Latitude":30.288733,"City":"Austin","Longitude":-97.704304,"County":"Travis County","Accuracy Type":"range_interpolation","Accuracy Score":1,"Number":2027,"phone":"512/614-2260","State":"TX","name":"Contigo","moreInfoUrl":"http://www.austinchronicle.com/locations/contigo-1230020/","Street":"Anchor Ln","Country":"US","href":"http://www.austinchronicle.com/food/first-plates/2016/contigo/","region":"East"}},{"geometry":{"coordinates":[-97.734319,30.290134],"type":"Point"},"id":"Taco Joint","type":"Feature","properties":{"Zip":78705,"website":"http://www.austintacojoint.com","address":"2807 San Jacinto","description":"There are few breakfast taco secrets left in Austin, but this campus-area hangover cure has been left largely untouched except for a steady stream of UT students and staff. It\u0027s rare you\u0027ll find eggs on a house-made tortilla in this town, even rarer to find one topped with such a gluttonous mound of cheese.","Latitude":30.290134,"City":"Austin","Longitude":-97.734319,"County":"Travis County","Accuracy Type":"range_interpolation","Accuracy Score":1,"Number":2807,"phone":"512/473-8223","State":"TX","name":"Taco Joint","moreInfoUrl":"http://www.austinchronicle.com/locations/taco-joint-1842680/","Street":"San Jacinto Blvd","Country":"US","href":"http://www.austinchronicle.com/food/first-plates/2016/taco-joint/","region":"Campus"}},{"geometry":{"coordinates":[-98.072934,30.290438],"type":"Point"},"id":"Proof \u0026 Cooper","type":"Feature","properties":{"Zip":78620,"website":"http://www.proofandcooper.com","address":"18710 Hamilton Pool Rd.","description":"With simple fare like deviled eggs and fried pickles, Proof \u0026 Cooper doesn\u2019t seem like it belongs on any \u201cbest of\u201d lists. But those deviled eggs pop with smoked paprika, and the fried pickles are made from in-house bread-and-butters. Heck, even the ranch dressing is a work of art. There\u2019s no pretention here, just perfectly crafted comfort food and cocktails.","Latitude":30.290438,"City":"Dripping Springs","Longitude":-98.072934,"County":"Travis County","Accuracy Type":"range_interpolation","Accuracy Score":0.8,"Number":18710,"phone":"","State":"TX","name":"Proof \u0026 Cooper","moreInfoUrl":"http://www.austinchronicle.com/locations/proof-and-cooper-1819471/","Street":"Hamilton Pool Rd","Country":"US","href":"http://www.austinchronicle.com/food/first-plates/2016/proof-and-cooper/","region":"West"}},{"geometry":{"coordinates":[-97.743917,30.296071],"type":"Point"},"id":"Texas French Bread","type":"Feature","properties":{"Zip":78705,"website":"http://www.texasfrenchbread.com","address":"2900 Rio Grande","description":"One of the most pleasant things about Texas French Bread has nothing to do with the food. Owner Murph Willcott\u0027s emails are part holiday newsletter, part memoir, and part photo essay, sharing anecdotes about restaurant life next to weekly specials. That personal touch shows in everything TFB does, from the Texas bistro cuisine to the charming garden patio.","Latitude":30.296071,"City":"Austin","Longitude":-97.743917,"County":"Travis County","Accuracy Type":"range_interpolation","Accuracy Score":1,"Number":2900,"phone":"512/499-0544","State":"TX","name":"Texas French Bread","moreInfoUrl":"http://www.austinchronicle.com/locations/texas-french-bread-46107/","Street":"Rio Grande St","Country":"US","href":"http://www.austinchronicle.com/food/first-plates/2016/texas-french-bread/","region":"Campus"}},{"geometry":{"coordinates":[-97.739805,30.300599],"type":"Point"},"id":"FoodHeads","type":"Feature","properties":{"Zip":78705,"website":"http://www.foodheads.com","address":"616 W. 34th","description":"This beloved little midtown cafe offers fresh takes on soups, salads, and sandwiches served at breakfast and lunch. Dine al fresco on the charmingly dishabille shaded front yard with their Tuna Niçoise Sandwich, soup du jour, and a side salad with blackberry balsamic vinaigrette.","Latitude":30.300599,"City":"Austin","Longitude":-97.739805,"County":"Travis County","Accuracy Type":"range_interpolation","Accuracy Score":1,"Number":616,"phone":"512/420-8400","State":"TX","name":"FoodHeads","moreInfoUrl":"http://www.austinchronicle.com/locations/foodheads-159964/","Street":"W 34th St","Country":"US","href":"http://www.austinchronicle.com/food/first-plates/2016/foodheads/","region":"Campus"}},{"geometry":{"coordinates":[-97.702365,30.305362],"type":"Point"},"id":"Xian Sushi and Noodle","type":"Feature","properties":{"Zip":78723,"website":"http://www.xianfresh.com","address":"1801 E. 51st","description":"We have to admit: We rarely order the ultra-fresh sushi because it\u2019s all about the hand-pulled Chinese noodles at this pan-Asian eatery. Served dry (stir-fried and saucy) or soupy, the strands are pulled to order (you choose the shape and thickness). The incomparable texture of the noodles, fragrant broth, and complimentary fermented black vinegar and chile oil have elevated the shoyu ramen to cult status.","Latitude":30.305362,"City":"Austin","Longitude":-97.702365,"County":"Travis County","Accuracy Type":"range_interpolation","Accuracy Score":1,"Number":1801,"phone":"512/469-7878","State":"TX","name":"Xian Sushi and Noodle","moreInfoUrl":"http://www.austinchronicle.com/locations/xian-sushi-and-noodle-1655706/","Street":"E 51st St","Country":"US","href":"http://www.austinchronicle.com/food/first-plates/2016/xian-sushi-and-noodle/","region":"NorthandNorthwest"}},{"geometry":{"coordinates":[-97.751734,30.306318],"type":"Point"},"id":"Olive \u0026 June","type":"Feature","properties":{"Zip":78703,"website":"http://www.oliveandjune-austin.com","address":"3411 Glenview","description":"Austin\u2019s no longer lacking Italian options, but before last year\u2019s flood of tagliatelle, Olive \u0026 June built a rep as a reliably great place to enjoy classics like cacio e pepe as well as creative interpretations like saffron-ricotta ravioli. There\u2019s just enough upscale decor to make a plate of spaghetti feel elegant, with a wine cellar to match.","Latitude":30.306318,"City":"Austin","Longitude":-97.751734,"County":"Travis County","Accuracy Type":"range_interpolation","Accuracy Score":1,"Number":3411,"phone":"512/467-9898","State":"TX","name":"Olive \u0026 June","moreInfoUrl":"http://www.austinchronicle.com/locations/olive-and-june-1326191/","Street":"Glenview Ave","Country":"US","href":"http://www.austinchronicle.com/food/first-plates/2016/olive-and-june/","region":"West"}},{"geometry":{"coordinates":[-97.715537,30.307912],"type":"Point"},"id":"Bullfight","type":"Feature","properties":{"Zip":78751,"website":"http://www.bullfight-austin.com","address":"4807 Airport","description":"Few local restaurants are as sexy as Shawn Cirkiel\u2019s Bullfight. Maybe it\u2019s the lighting, or the almost encyclopedic selection of sherries (nerds are sexy too), or the indoor-outdoor space. But we always have our rom-com moment when we bite into tapas like branzino crudo or veal sweetbreads a la plancha. We don\u2019t even need a date.","Latitude":30.307912,"City":"Austin","Longitude":-97.715537,"County":"Travis County","Accuracy Type":"range_interpolation","Accuracy Score":1,"Number":4807,"phone":"512/474-2029","State":"TX","name":"Bullfight","moreInfoUrl":"http://www.austinchronicle.com/locations/bullfight-1669856/","Street":"Airport Blvd","Country":"US","href":"http://www.austinchronicle.com/food/first-plates/2016/bullfight/","region":"Midtown"}},{"geometry":{"coordinates":[-97.732535,30.307936],"type":"Point"},"id":"Asti","type":"Feature","properties":{"Zip":78751,"website":"http://www.astiaustin.com","address":"408-C E. 43rd","description":"In 2001, Chronicle readers voted this Hyde Park mainstay the Best New Restaurant in our annual Restaurant Poll. Customers haven\u2019t stopped raving since. It\u2019s rare for a restaurant to have longevity over a more than 15-year span; it\u2019s rarer still when a restaurant still feels relevant.","Latitude":30.307936,"City":"Austin","Longitude":-97.732535,"County":"Travis County","Accuracy Type":"street_center","Accuracy Score":0.8,"Number":"","phone":"512/451-1218","State":"TX","name":"Asti","moreInfoUrl":"http://www.austinchronicle.com/locations/asti-47885/","Street":"W 43rd St","Country":"US","href":"http://www.austinchronicle.com/food/first-plates/2016/asti/","region":"VirginiaB.WoodHallofFame"}},{"geometry":{"coordinates":[-97.715353,30.310093],"type":"Point"},"id":"Komé","type":"Feature","properties":{"Zip":78751,"website":"http://www.kome-austin.com","address":"4917 Airport","description":"As one of Austin\u2019s first food trailer-gone-brick and mortar success stories, Komé has grown from its Sushi-A-Go-Go roots to serve as an anchor in Airport Boulevard\u2019s booming restaurant scene. The izakaya-style restaurant run by Takehiro and Kayo Asazu is still a cozy neighborhood shop featuring homestyle Japanese cooking and some of the most affordable, quality sushi you can find in the city.","Latitude":30.310093,"City":"Austin","Longitude":-97.715353,"County":"Travis County","Accuracy Type":"range_interpolation","Accuracy Score":1,"Number":4917,"phone":"512/712-5700","State":"TX","name":"Komé","moreInfoUrl":"http://www.austinchronicle.com/locations/kome-1326020/","Street":"Airport Blvd","Country":"US","href":"http://www.austinchronicle.com/food/first-plates/2016/kome/","region":"Midtown"}},{"geometry":{"coordinates":[-97.715249,30.312912],"type":"Point"},"id":"Sala \u0026 Betty","type":"Feature","properties":{"Zip":78751,"website":"http://www.salaandbettyatx.com","address":"5201 Airport","description":"The vision behind this neighborhood spot was to provide wholesome food quickly, and it does just that. Run by former Aquarelle owner, Teresa Wilson, Sala \u0026 Betty can still teach Austin\u2019s food scene a thing or two on inventive ways to use vegetables, like its cauliflower tortillas and mushroom \u201cmeatloaf,\u201d to name a few. What\u2019s more, you can get your meal to-go via the drive-through.","Latitude":30.312912,"City":"Austin","Longitude":-97.715249,"County":"Travis County","Accuracy Type":"range_interpolation","Accuracy Score":1,"Number":5201,"phone":"512/645-0214","State":"TX","name":"Sala \u0026 Betty","moreInfoUrl":"http://www.austinchronicle.com/locations/sala-and-betty-1611116/","Street":"Airport Blvd","Country":"US","href":"http://www.austinchronicle.com/food/first-plates/2016/sala-and-betty/","region":"Midtown"}},{"geometry":{"coordinates":[-97.741586,30.315682],"type":"Point"},"id":"La Cocina de Consuelo","type":"Feature","properties":{"Zip":78756,"website":"http://www.consueloskitchen.com","address":"4516 Burnet Rd.","description":"Starting with a church fundraiser that turned into a famed catering business, the owner/namesake of \u201cConnie\u2019s Kitchen\u201d made her dream come true at 63 with the family-operated Mexican restaurant. Try the homemade tortillas in her famous enchiladas and, arguably, the best breakfast burrito in town.","Latitude":30.315682,"City":"Austin","Longitude":-97.741586,"County":"Travis County","Accuracy Type":"range_interpolation","Accuracy Score":1,"Number":4516,"phone":"512/524-4740","State":"TX","name":"La Cocina de Consuelo","moreInfoUrl":"http://www.austinchronicle.com/locations/la-cocina-de-consuelo-466951/","Street":"Burnet Rd","Country":"US","href":"http://www.austinchronicle.com/food/first-plates/2016/la-cocina-de-consuelo/","region":"Midtown"}},{"geometry":{"coordinates":[-97.720167,30.317374],"type":"Point"},"id":"Foreign \u0026 Domestic","type":"Feature","properties":{"Zip":78751,"website":"http://www.fndaustin.com","address":"306 E. 53rd","description":"Housed in a converted gas station, Foreign \u0026 Domestic offers a refreshing mix of American classics and more exotic European fare. Although the restaurant\u2019s odd cuts of meat is a conversation piece (tongues of assorted animals often guest-star on its ever-changing menu), it\u2019s the chef\u2019s attention to detail that keeps customers coming back for more.","Latitude":30.317374,"City":"Austin","Longitude":-97.720167,"County":"Travis County","Accuracy Type":"range_interpolation","Accuracy Score":1,"Number":306,"phone":"512/459-1010","State":"TX","name":"Foreign \u0026 Domestic","moreInfoUrl":"http://www.austinchronicle.com/locations/foreign-and-domestic-1060330/","Street":"E 53rd St","Country":"US","href":"http://www.austinchronicle.com/food/first-plates/2016/foreign-and-domestic/","region":"Midtown"}},{"geometry":{"coordinates":[-97.739122,30.319159],"type":"Point"},"id":"Noble Sandwich Co.","type":"Feature","properties":{"Zip":78756,"website":"http://www.noblesandwiches.com","address":"4805 Burnet Rd.","description":"Ludwig Mies van der Rohe was fond of saying \u201cless is more,\u201d but that\u2019s probably because he never had a Noble sandwich. Take the seared beef tongue piled with smoked green onions, red pepper relish, and tangy aïoli. Who needs minimalism when maximalism is so delicious?","Latitude":30.319159,"City":"Austin","Longitude":-97.739122,"County":"Travis County","Accuracy Type":"range_interpolation","Accuracy Score":1,"Number":4805,"phone":"512/666-5124","State":"TX","name":"Noble Sandwich Co.","moreInfoUrl":"http://www.austinchronicle.com/locations/noble-sandwich-co-1527726/","Street":"Burnet Rd","Country":"US","href":"http://www.austinchronicle.com/food/first-plates/2016/noble-sandwich-co/","region":"Midtown"}},{"geometry":{"coordinates":[-97.74281,30.324159],"type":"Point"},"id":"Épicerie","type":"Feature","properties":{"Zip":78756,"website":"http://www.epicerieaustin.com","address":"2307 Hancock","description":"Perfect for a casual Sunday brunch, this neighborhood French-American restaurant makes you feel just a little bit fancy and right at home all at once. The airy cafe and grocery shop offers simple but well-executed dishes like cured salmon toast, gnocchi, and a burger with a side of frites. If you\u2019re only feeling peckish, get a custom cheese plate and a bottle of rosé, and call it un jour.","Latitude":30.324159,"City":"Austin","Longitude":-97.74281,"County":"Travis County","Accuracy Type":"range_interpolation","Accuracy Score":1,"Number":2307,"phone":"512/371-6840","State":"TX","name":"Épicerie","moreInfoUrl":"http://www.austinchronicle.com/locations/epicerie-cafe-and-grocery-1434358/","Street":"Hancock Dr","Country":"US","href":"http://www.austinchronicle.com/food/first-plates/2016/epicerie-cafe-and-grocery/","region":"Midtown"}},{"geometry":{"coordinates":[-97.771258,30.326374],"type":"Point"},"id":"Nasha","type":"Feature","properties":{"Zip":73301,"website":"http://www.nashaindia.com","address":"1614 E. Seventh","description":"Specializing in Indian soul food, this psychedelic Eastside spot blends traditional dishes like tikka masala and saag paneer with Texas\u2019 culinary traditions. The lunch thali platter is a great deal, and options run aplenty with curries, flavored naan, biryani, samosas, and even tacos. The spicy curried margarita is our favorite summer tipple.","Latitude":30.326374,"City":"Austin","Longitude":-97.771258,"County":"Travis County","Accuracy Type":"place","Accuracy Score":0.33,"Number":"","phone":"512/350-2919","State":"TX","name":"Nasha","moreInfoUrl":"http://www.austinchronicle.com/locations/nasha-1632580/","Street":"","Country":"US","href":"http://www.austinchronicle.com/food/first-plates/2016/nasha/","region":"LowerEast"}},{"geometry":{"coordinates":[-97.771258,30.326374],"type":"Point"},"id":"Buenos Aires Café Este","type":"Feature","properties":{"Zip":73301,"website":"http://www.buenosairescafe.com","address":"1201 E. Sixth","description":"Chef Reina Morris brought her native Argentinian cuisine to Austin over a decade ago, and her restaurants have been a mainstay ever since. Now daughter Paola MG Smith is a co-owner, bringing contemporary touches like a new amaro-focused speakeasy in the basement. The family collaboration has brought renewed energy to the building, proving the classics can still electrify.","Latitude":30.326374,"City":"Austin","Longitude":-97.771258,"County":"Travis County","Accuracy Type":"place","Accuracy Score":0.33,"Number":"","phone":"512/382-1189","State":"TX","name":"Buenos Aires Café Este","moreInfoUrl":"http://www.austinchronicle.com/locations/buenos-aires-cafe-1461729/","Street":"","Country":"US","href":"http://www.austinchronicle.com/food/first-plates/2016/buenos-aires-cafe/","region":"LowerEast"}},{"geometry":{"coordinates":[-97.771258,30.326374],"type":"Point"},"id":"Justine\u0027s Brasserie","type":"Feature","properties":{"Zip":73301,"website":"http://www.justines1937.com","address":"4710 E. Fifth","description":"This \u201cBest of Austin\u201d and \u201cFirst Plates\u201d veteran continues to be our own private party. No matter how many times we traipse to Justine\u2019s, every visit is a brand-new experience \u2013 thanks to nightly blackboard specials like flounder with spring onions, or bison- and bacon-stuffed cabbage. Mainstays like the steak frites and superlative pork chops will never cease to please. It\u2019s like a long-lasting relationship: familiar and intimate, but simultaneously exciting. We\u2019re still in love.","Latitude":30.326374,"City":"Austin","Longitude":-97.771258,"County":"Travis County","Accuracy Type":"place","Accuracy Score":0.33,"Number":"","phone":"512/385-2900","State":"TX","name":"Justine\u0027s Brasserie","moreInfoUrl":"http://www.austinchronicle.com/locations/justines-brasserie-839941/","Street":"","Country":"US","href":"http://www.austinchronicle.com/food/first-plates/2016/justines-brasserie/","region":"LowerEast"}},{"geometry":{"coordinates":[-97.771258,30.326374],"type":"Point"},"id":"The Hightower","type":"Feature","properties":{"Zip":73301,"website":"http://www.thehightoweraustin.com","address":"1209 E. Seventh","description":"The outside might look a little like an Eastside dive bar, but the Hightower isn\u2019t about pouring Jameson shots to denim vest-wearing beardos. Yes, there is a full bar, but the focus is chef Chad Dolezal\u2019s quietly adventurous menu that blends the Lone Star State\u2019s culinary traditions with a global palate. We\u2019ll drink to that.","Latitude":30.326374,"City":"Austin","Longitude":-97.771258,"County":"Travis County","Accuracy Type":"place","Accuracy Score":0.33,"Number":"","phone":"512/524-1448","State":"TX","name":"The Hightower","moreInfoUrl":"http://www.austinchronicle.com/locations/the-hightower-1512262/","Street":"","Country":"US","href":"http://www.austinchronicle.com/food/first-plates/2016/the-hightower/","region":"LowerEast"}},{"geometry":{"coordinates":[-97.771258,30.326374],"type":"Point"},"id":"Salt \u0026 Time Butcher Shop \u0026 Salumeria","type":"Feature","properties":{"Zip":73301,"website":"http://www.saltandtime.com","address":"1912 E. Seventh","description":"Artisanal butchering may have been supplanted by other food trends nationally, but the movement hasn\u2019t slowed down in Texas. Salt \u0026 Time still excel at the nose-to-tail tradition, evidenced by their in-house charcuterie and rotating offal specials. Their wide selection of meats ranges from popular cuts to the lesser-known ones, and lunch, brunch, and dinner in the minimalist dining room are simple and fresh.","Latitude":30.326374,"City":"Austin","Longitude":-97.771258,"County":"Travis County","Accuracy Type":"place","Accuracy Score":0.33,"Number":"","phone":"512/524-1383","State":"TX","name":"Salt \u0026 Time Butcher Shop \u0026 Salumeria","moreInfoUrl":"http://www.austinchronicle.com/locations/salt-and-time-butcher-shop-and-salumeria-1074790/","Street":"","Country":"US","href":"http://www.austinchronicle.com/food/first-plates/2016/salt-and-time-butcher-shop-and-salumeria/","region":"LowerEast"}},{"geometry":{"coordinates":[-97.771258,30.326374],"type":"Point"},"id":"Easy Tiger","type":"Feature","properties":{"Zip":73301,"website":"http://www.easytigeraustin.com","address":"709 E. Sixth","description":"With its relaxed beer garden vibes and extensive menu of smoked meats, Easy Tiger is the perfect refuge for grown adults dragged down to Sixth Street to see their friends\u0027 jam bands. A vat of their beer cheese and a couple of their well-balanced cocktails would put anyone in a good enough mood to listen to some white guy from IT do his best Bob Marley impression.","Latitude":30.326374,"City":"Austin","Longitude":-97.771258,"County":"Travis County","Accuracy Type":"place","Accuracy Score":0.33,"Number":"","phone":"512/614-4972","State":"TX","name":"Easy Tiger","moreInfoUrl":"http://www.austinchronicle.com/locations/easy-tiger-1293071/","Street":"","Country":"US","href":"http://www.austinchronicle.com/food/first-plates/2016/easy-tiger/","region":"Downtown"}},{"geometry":{"coordinates":[-97.771258,30.326374],"type":"Point"},"id":"Fixe","type":"Feature","properties":{"Zip":73301,"website":"http://www.austinfixe.com","address":"500 W. Fifth","description":"Louisiana native chef James Robert plates up elevated, playful Southern eats. The team executes a fine balance between classics-done-well (like their famed biscuits) and outside-the-box concepts (like lobster \u0026 crawfish pot pie). The bar stirs up reimagined cocktails \u2013 the barrel-aged Manhattan with house-cured bacon is a showstopper. Whimsy carries into the eclectic space made up of a bright open kitchen and a chicken-coop-inspired dining room.","Latitude":30.326374,"City":"Austin","Longitude":-97.771258,"County":"Travis County","Accuracy Type":"place","Accuracy Score":0.33,"Number":"","phone":"512/888-9133","State":"TX","name":"Fixe","moreInfoUrl":"http://www.austinchronicle.com/locations/fixe-1597766/","Street":"","Country":"US","href":"http://www.austinchronicle.com/food/first-plates/2016/fixe/","region":"Downtown"}},{"geometry":{"coordinates":[-97.771258,30.326374],"type":"Point"},"id":"Italic","type":"Feature","properties":{"Zip":73301,"website":"http://www.italicaustin.com","address":"123 W. Sixth","description":"Italic is the perfect neighborhood date night restaurant, with a menu of beautifully wrought Italian classics, and just enough original touches to keep things interesting. The slow-braised bolognese sets a new standard in carb-intensive comfort food.","Latitude":30.326374,"City":"Austin","Longitude":-97.771258,"County":"Travis County","Accuracy Type":"place","Accuracy Score":0.33,"Number":"","phone":"512/660-5390","State":"TX","name":"Italic","moreInfoUrl":"http://www.austinchronicle.com/locations/italic-1623538/","Street":"","Country":"US","href":"http://www.austinchronicle.com/food/first-plates/2016/italic/","region":"Downtown"}},{"geometry":{"coordinates":[-97.771258,30.326374],"type":"Point"},"id":"Wu Chow","type":"Feature","properties":{"Zip":73301,"website":"http://www.wuchowaustin.com/","address":"500 W. Fifth","description":"Like Edie Sedgwick or Karlie Kloss, Wu Chow\u0027s Shanghai soup dumplings have been the muse for all sorts of artistic endeavors. Just last week, we rewrote Hamilton as a tribute to the tiny miracles. Maybe that was a bad idea, but when a place serves up Chinese food as delicious as Wu Chow\u0027s, it deserves a big production.","Latitude":30.326374,"City":"Austin","Longitude":-97.771258,"County":"Travis County","Accuracy Type":"place","Accuracy Score":0.33,"Number":"","phone":"512/482-8200","State":"TX","name":"Wu Chow","moreInfoUrl":"http://www.austinchronicle.com/locations/wu-chow-1602512/","Street":"","Country":"US","href":"http://www.austinchronicle.com/food/first-plates/2016/wu-chow/","region":"Downtown"}},{"geometry":{"coordinates":[-97.771258,30.326374],"type":"Point"},"id":"Clark\u0027s Oyster Bar","type":"Feature","properties":{"Zip":73301,"website":"http://www.clarksoysterbar.com","address":"1200 W. Sixth","description":"Dining at Clark\u2019s Oyster Bar is like being transported into a nautical J. Crew ad. The interior\u2019s impeccable, the waitstaff and clientele are polished, and every dish is photo shoot-ready. Run by the same group behind Perla\u2019s and Jeffrey\u2019s, every detail behind Clark\u2019s is deliberate and adds to the whole dining experience \u2013 though its lauded raw bar menu and seafood specialties like Clark\u2019s cioppino could stand on their own.","Latitude":30.326374,"City":"Austin","Longitude":-97.771258,"County":"Travis County","Accuracy Type":"place","Accuracy Score":0.33,"Number":"","phone":"512/297-2525","State":"TX","name":"Clark\u0027s Oyster Bar","moreInfoUrl":"http://www.austinchronicle.com/locations/clarks-oyster-bar-1403386/","Street":"","Country":"US","href":"http://www.austinchronicle.com/food/first-plates/2016/clarks-oyster-bar/","region":"West"}},{"geometry":{"coordinates":[-97.771258,30.326374],"type":"Point"},"id":"Austin Daily Press","type":"Feature","properties":{"Zip":73301,"website":"http://austindailypress.com","address":"1900 E. MLK","description":"Sure, we love the bánh mì-esque Lucy done up as tacos and the Baby Buffalo as a hearty salad, but the sammies at ADP are the real deal, served up on rolls from La Mexicana Panaderia and Sweetish Hill Bakery \u2013 and the jalapeño hush puppies always have us barking for more. Plus, anywhere with \"Free Beer Fridays\" has a permanent place in our hearts.","Latitude":30.326374,"City":"Austin","Longitude":-97.771258,"County":"Travis County","Accuracy Type":"place","Accuracy Score":0.33,"Number":"","phone":"","State":"TX","name":"Austin Daily Press","moreInfoUrl":"http://www.austinchronicle.com/locations/austin-daily-press-1458386/","Street":"","Country":"US","href":"http://www.austinchronicle.com/food/first-plates/2016/austin-daily-press/","region":"East"}},{"geometry":{"coordinates":[-97.771258,30.326374],"type":"Point"},"id":"Alcomar","type":"Feature","properties":{"Zip":73301,"website":"http://www.alcomaratx.com","address":"1816 S. First","description":"We don\u2019t want to get too much into Lana Del Rey\u2019s business, but maybe if she had a restaurant like Alcomar nearby, she wouldn\u2019t experience so much \u201cSummertime Sadness.\u201d With an effortless interior, achingly fresh seafood, and heady margaritas, chefs Alma Alcocer-Thomas and Jeff Martinez preside over an instant pick-me-up.","Latitude":30.326374,"City":"Austin","Longitude":-97.771258,"County":"Travis County","Accuracy Type":"place","Accuracy Score":0.33,"Number":"","phone":"512/401-3161","State":"TX","name":"Alcomar","moreInfoUrl":"http://www.austinchronicle.com/locations/alcomar-1643795/","Street":"","Country":"US","href":"http://www.austinchronicle.com/food/first-plates/2016/alcomar/","region":"SouthCongressandSouthFirst"}},{"geometry":{"coordinates":[-97.771258,30.326374],"type":"Point"},"id":"Sway","type":"Feature","properties":{"Zip":73301,"website":"http://www.swayaustin.com","address":"1417 S. First","description":"Sway\u2019s extensive menu means there\u2019s never a lack of exciting dishes to try, even though we can\u2019t seem to forgo our favorites like prawn miange and blue crab fried rice. (We\u2019ve learned to come with a group and share all the dishes.) Chef Martin Wilda\u2019s special menus, celebrating events such as the recent Songkran, as well as a new brunch menu, ensure we keep coming back.","Latitude":30.326374,"City":"Austin","Longitude":-97.771258,"County":"Travis County","Accuracy Type":"place","Accuracy Score":0.33,"Number":"","phone":"512/326-1999","State":"TX","name":"Sway","moreInfoUrl":"http://www.austinchronicle.com/locations/sway-1394078/","Street":"","Country":"US","href":"http://www.austinchronicle.com/food/first-plates/2016/sway/","region":"SouthCongressandSouthFirst"}},{"geometry":{"coordinates":[-97.771258,30.326374],"type":"Point"},"id":"Lenoir","type":"Feature","properties":{"Zip":73301,"website":"http://www.lenoirrestaurant.com","address":"1807 S. First","description":"A rare affordable date spot in a crowded high-dollar dining scene, Lenoir\u2019s three-course prix fixe remains the best value and one of the most dazzling meals in town, with dishes like masa-stuffed quail and cold crawfish salad defying categorization without confusing taste buds.","Latitude":30.326374,"City":"Austin","Longitude":-97.771258,"County":"Travis County","Accuracy Type":"place","Accuracy Score":0.33,"Number":"","phone":"512/215-9778","State":"TX","name":"Lenoir","moreInfoUrl":"http://www.austinchronicle.com/locations/lenoir-1321295/","Street":"","Country":"US","href":"http://www.austinchronicle.com/food/first-plates/2016/lenoir/","region":"SouthCongressandSouthFirst"}},{"geometry":{"coordinates":[-97.771258,30.326374],"type":"Point"},"id":"Cafe Josie","type":"Feature","properties":{"Zip":73301,"website":"http://www.cafejosie.com","address":"1200-B W. Sixth","description":"For most restaurants, all-you-can-eat is a concept meant to pack in the masses. For Cafe Josie chef Todd Havers, it\u2019s an antidote to upscale dining that still leaves you hungry after a hefty bill. \u201cThe experience,\u201d the name for the recently launched unlimited prix fixe, is proof that this Clarksville fixture can still teach this town some new tricks.","Latitude":30.326374,"City":"Austin","Longitude":-97.771258,"County":"Travis County","Accuracy Type":"place","Accuracy Score":0.33,"Number":"","phone":"512/322-9226","State":"TX","name":"Cafe Josie","moreInfoUrl":"http://www.austinchronicle.com/locations/cafe-josie-44417/","Street":"","Country":"US","href":"http://www.austinchronicle.com/food/first-plates/2016/cafe-josie/","region":"West"}},{"geometry":{"coordinates":[-97.925399,30.329029],"type":"Point"},"id":"Jeffrey\u0027s","type":"Feature","properties":{"Zip":78732,"website":"http://www.jeffreysofaustin.com","address":"1204 W. Lynn","description":"Jeffrey\u2019s is elegant; the kind of place where you can order foie gras and caviar, where the cocktail onions are house-made and the wine list runs to 40-plus pages. The kind of place where you get proposed to, where you celebrate decade birthdays and college graduations. If you\u2019re a deep-pocketed romantic, you already have their number.","Latitude":30.329029,"City":"Austin","Longitude":-97.925399,"County":"Travis County","Accuracy Type":"street_center","Accuracy Score":0.8,"Number":"","phone":"512/477-5584","State":"TX","name":"Jeffrey\u0027s","moreInfoUrl":"http://www.austinchronicle.com/locations/jeffreys-46718/","Street":"West Ln","Country":"US","href":"http://www.austinchronicle.com/food/first-plates/2016/jeffreys/","region":"West"}},{"geometry":{"coordinates":[-97.71641,30.338972],"type":"Point"},"id":"Royal Jelly","type":"Feature","properties":{"Zip":78752,"website":"http://www.royaljellyatx.com","address":"704 W. St. Johns","description":"The still-new, but ever-changing menu at Royal Jelly has us rushing back to try everything before the season dictates its expiration. Merguez lamb sliders with fennel-carrot-mint slaw and goat cheese is our current obsession. The all-Texas beer list ranges from sours to stouts, and the full bar makes a mean Mol\u2019e Fashioned. It\u2019s our favorite neighborhood bar \u2013 even if we have to travel from several neighborhoods over to enjoy it.","Latitude":30.338972,"City":"Austin","Longitude":-97.71641,"County":"Travis County","Accuracy Type":"range_interpolation","Accuracy Score":1,"Number":704,"phone":"512/765-4816","State":"TX","name":"Royal Jelly","moreInfoUrl":"http://www.austinchronicle.com/locations/royal-jelly-1664678/","Street":"W St Johns Ave","Country":"US","href":"http://www.austinchronicle.com/food/first-plates/2016/royal-jelly/","region":"Midtown"}},{"geometry":{"coordinates":[-97.738047,30.340567],"type":"Point"},"id":"Barley Swine","type":"Feature","properties":{"Zip":78757,"website":"http://www.barleyswine.com","address":"6555 Burnet Rd. #400","description":"We were sad to see the intimate space on South Lamar close, but it didn\u2019t take us long to warm up to the kitchen views, cozy tables, and full bar of the new location. The menu keeps on evolving too, as happens when you have one of the best kitchen teams in all of Austin.","Latitude":30.340567,"City":"Austin","Longitude":-97.738047,"County":"Travis County","Accuracy Type":"range_interpolation","Accuracy Score":1,"Number":6555,"phone":"512/394-8150","State":"TX","name":"Barley Swine","moreInfoUrl":"http://www.austinchronicle.com/locations/barley-swine-1142558/","Street":"Burnet Rd","Country":"US","href":"http://www.austinchronicle.com/food/first-plates/2016/barley-swine/","region":"Midtown"}},{"geometry":{"coordinates":[-97.755205,30.354646],"type":"Point"},"id":"Saffron","type":"Feature","properties":{"Zip":78731,"website":"http://www.saffronaustin.com","address":"3616 Far West Blvd.","description":"Austin\u2019s first dedicated Nepalese menu lives in a West Austin strip mall. Himalayan cuisine encompasses various regional Indian dishes, plenty of wonderful vegetarian options, and a Chinese influence. Mouthwatering tandoori dishes are equally matched by their samosa and chow mein counterparts, but we\u2019re simply obsessed with the gobi Manchurian and the rosemary \u0026 cheese naan.","Latitude":30.354646,"City":"Austin","Longitude":-97.755205,"County":"Travis County","Accuracy Type":"range_interpolation","Accuracy Score":1,"Number":3616,"phone":"512/241-1732","State":"TX","name":"Saffron","moreInfoUrl":"http://www.austinchronicle.com/locations/saffron-1685331/","Street":"Far West Blvd","Country":"US","href":"http://www.austinchronicle.com/food/first-plates/2016/saffron/","region":"NorthandNorthwest"}},{"geometry":{"coordinates":[-98.082304,30.379602],"type":"Point"},"id":"Apis Restaurant \u0026 Apiary","type":"Feature","properties":{"Zip":78669,"website":"http://www.apisrestaurant.com","address":"23526 Hwy. 71 W.","description":"This fine-dining hive nestled on the Pedernales is even better than its buzz. Chef Taylor Hall\u2019s dedication to seasonal and local fare, plus the on-site apiary and new covered patio, make this an unforgettable dinner. Try the honeycomb-infused Texas bourbon craft cocktail and the buttermilk biscuits with honey butter.","Latitude":30.379602,"City":"Spicewood","Longitude":-98.082304,"County":"Travis County","Accuracy Type":"range_interpolation","Accuracy Score":0.9,"Number":23526,"phone":"","State":"TX","name":"Apis Restaurant \u0026 Apiary","moreInfoUrl":"http://www.austinchronicle.com/locations/apis-restaurant-and-apiary-1591554/","Street":"State Hwy 71","Country":"US","href":"http://www.austinchronicle.com/food/first-plates/2016/apis-restaurant-and-apiary/","region":"West"}},{"geometry":{"coordinates":[-97.926323,30.397379],"type":"Point"},"id":"Jenna\u0027s Asian Kitchen","type":"Feature","properties":{"Zip":78734,"website":"http://www.jennasasiankitchen.com/","address":"12300 RR 620 N.","description":"Besides the relatively affordable cost of living, there\u2019s another reason to move out to Cedar Park. Jenna\u2019s namesake chef Jenna Choe can make something as workaday as crab rangoon into a tour de force, and her fresh takes on Korean classics like bibimbap give suburbanites something to throw back in the faces of their snobby urban neighbors.","Latitude":30.397379,"City":"Austin","Longitude":-97.926323,"County":"Travis County","Accuracy Type":"street_center","Accuracy Score":0.8,"Number":"","phone":"512/258-8282","State":"TX","name":"Jenna\u0027s Asian Kitchen","moreInfoUrl":"http://www.austinchronicle.com/locations/jennas-asian-kitchen-1659334/","Street":"Fm 620","Country":"US","href":"http://www.austinchronicle.com/food/first-plates/2016/jennas-asian-kitchen/","region":"West"}},{"geometry":{"coordinates":[-97.654922,30.399697],"type":"Point"},"id":"Kin \u0026 Comfort","type":"Feature","properties":{"Zip":78754,"website":"http://https://www.fb.com/kinandcomfort","address":"1700 W. Parmer #100","description":"The digs aren\u2019t fancy (it\u2019s a grocery store food court after all), but chef Ek Timrerk\u2019s confident blend of Thai and Southern cuisines defies location. Dishes like the panang mac \u0026 cheese and the Thai meat loaf could work in the finest of dining rooms. Get them now while they are still a bargain.","Latitude":30.399697,"City":"Austin","Longitude":-97.654922,"County":"Travis County","Accuracy Type":"range_interpolation","Accuracy Score":1,"Number":1700,"phone":"512/832-7870","State":"TX","name":"Kin \u0026 Comfort","moreInfoUrl":"http://www.austinchronicle.com/locations/kin-and-comfort-1547672/","Street":"W Parmer Ln","Country":"US","href":"http://www.austinchronicle.com/food/first-plates/2016/kin-and-comfort/","region":"NorthandNorthwest"}},{"geometry":{"coordinates":[-97.846859,30.417459],"type":"Point"},"id":"Oasthouse Kitchen + Bar","type":"Feature","properties":{"Zip":78726,"website":"http://www.oasthouseaustin.com","address":"8300 FM 620 N.","description":"This new favorite from District Kitchen + Cocktails chef/partner Amir Hajimaleki\u2019s adventurous cuisine blends global influences like German (veal schnitzel), Caribbean (jerk pork tenderloin), and Irish (shepherd\u2019s pie) foods without ever feeling disjointed. We love that he\u2019s bringing the gospel of good food to the outskirts of Austin.","Latitude":30.417459,"City":"Austin","Longitude":-97.846859,"County":"Travis County","Accuracy Type":"range_interpolation","Accuracy Score":1,"Number":8300,"phone":"737/222-5779","State":"TX","name":"Oasthouse Kitchen + Bar","moreInfoUrl":"http://www.austinchronicle.com/locations/oasthouse-kitchen-bar-1690988/","Street":"Fm 620 N","Country":"US","href":"http://www.austinchronicle.com/food/first-plates/2016/oasthouse-kitchen-bar/","region":"West"}},{"geometry":{"coordinates":[-97.686207,30.446148],"type":"Point"},"id":"Garbo\u0027s Fresh Maine Lobster","type":"Feature","properties":{"Zip":78728,"website":"http://www.garboslobsteratx.com","address":"14735 Bratton","description":"With New England seafood flown in daily, and options for Maine- or Connecticut-style lobster rolls, the brick-and-mortar version of the popular food truck fleet is the flagship of a mini Third Coast empire. Try the delectable smoked fish dip served in mason jars with house pickles and the fish \u0026 chips made to perfection.","Latitude":30.446148,"City":"Austin","Longitude":-97.686207,"County":"Travis County","Accuracy Type":"range_interpolation","Accuracy Score":1,"Number":14735,"phone":"512/350-9814","State":"TX","name":"Garbo\u0027s Fresh Maine Lobster","moreInfoUrl":"http://www.austinchronicle.com/locations/garbos-fresh-maine-lobster-1559197/","Street":"Bratton Ln","Country":"US","href":"http://www.austinchronicle.com/food/first-plates/2016/garbos-fresh-maine-lobster/","region":"NorthandNorthwest"}},{"geometry":{"coordinates":[-97.670818,30.538087],"type":"Point"},"id":"Greenhouse Craft Food","type":"Feature","properties":{"Zip":78664,"website":"http://www.greenhousecraftfood.com","address":"1400 E. Old Settlers #110","description":"Who says that the \u2019burbs can\u2019t have good food? Chef Rob Snow\u2019s eclectic cafe brings the foodie gospel up north with serious sandwiches and burgers, locally sourced salads, and one of the best macaroni \u0026 cheeses in all of Central Texas. Don\u2019t forget to check out the specials, ranging from grilled shrimp in strawberry cocktail sauce to goat bolognese.","Latitude":30.538087,"City":"Round Rock","Longitude":-97.670818,"County":"Williamson County","Accuracy Type":"range_interpolation","Accuracy Score":0.8,"Number":1400,"phone":"","State":"TX","name":"Greenhouse Craft Food","moreInfoUrl":"http://www.austinchronicle.com/locations/greenhouse-craft-food-1529937/","Street":"E Old Settlers Blvd","Country":"US","href":"http://www.austinchronicle.com/food/first-plates/2016/greenhouse-craft-food/","region":"NorthandNorthwest"}},{"geometry":{"coordinates":[-97.692664,30.540245],"type":"Point"},"id":"Jack Allen\u0027s Kitchen Round Rock","type":"Feature","properties":{"Zip":78681,"website":"http://www.austinchronicle.com/locations/jack-allens-kitchen-round-rock-1346831/","address":"2500 Hoppe Trail","description":"Chef Jack Gilmore\u2019s locally sourced menu is about as Texan as it gets: hearty portions of comfort food jam-packed with big flavor, served in a sophisticated boots-and-starched-denim setting. Tacos, buns, grillin\u2019s, and chicken-fried anything makes up the bulk of the menu, with surf, turf, and daily specials giving something for everyone in the family.","Latitude":30.540245,"City":"Round Rock","Longitude":-97.692664,"County":"Williamson County","Accuracy Type":"range_interpolation","Accuracy Score":1,"Number":2500,"phone":"","State":"TX","name":"Jack Allen\u0027s Kitchen Round Rock","moreInfoUrl":"","Street":"Hoppe Trl","Country":"US","href":"http://www.austinchronicle.com/food/first-plates/2016/jack-allens-kitchen-round-rock/","region":"NorthandNorthwest"}},{"geometry":{"coordinates":[-97.762643,30.254349],"type":"Point"},"id":"Barlata Tapas Bar","type":"Feature","properties":{"Zip":78704,"website":"http://www.barlataaustin.com","address":"1500 S. Lamar Blvd","description":"Bringing authentic Spanish tapas by way of San Francisco, husband-and-wife team Daniel Olivella and Vanessa Jerez should be kissed for bringing this gem to South Lamar. What more could a person want than to be able to pick an assortment of small plates bursting with flavor, from squid ink paellas to traditional latas? Oh yes, to wash it all down with house-made sangria. Barlata\u2019s got it all.","Latitude":30.254349,"City":"Austin","Longitude":-97.762643,"County":"Travis County","Accuracy Type":"range_interpolation","Accuracy Score":1,"Number":1500,"phone":"512/473-2211","State":"TX","name":"Barlata Tapas Bar","moreInfoUrl":"http://www.austinchronicle.com/locations/barlata-tapas-bar-1478684/","Street":"S Lamar Blvd","Country":"US","href":"http://www.austinchronicle.com/food/first-plates/2016/barlata-tapas-bar/","region":"SouthLamarandBartonSprings"}},{"geometry":{"coordinates":[-97.740039,30.310099],"type":"Point"},"id":"Uchiko","type":"Feature","properties":{"Zip":78756,"website":"http://www.uchiaustin.com/uchiko","address":"4200 N. Lamar Blvd #140","description":"Translated as \u201cchild of uchi,\u201d Tyson Cole\u2019s sequel to his now-multiplying Uchi restaurant has grown into an identity of its own. With a killer happy hour, exquisite Japanese farmhouse cuisine, and a kitchen that produces some of Austin\u2019s most talented chefs, it\u2019s no wonder Uchiko has been packed nonstop since its 2010 opening.","Latitude":30.310099,"City":"Austin","Longitude":-97.740039,"County":"Travis County","Accuracy Type":"range_interpolation","Accuracy Score":1,"Number":4200,"phone":"512/916-4808","State":"TX","name":"Uchiko","moreInfoUrl":"http://www.austinchronicle.com/locations/uchiko-1142561/","Street":"N Lamar Blvd","Country":"US","href":"http://www.austinchronicle.com/food/first-plates/2016/uchiko/","region":"Midtown"}},{"geometry":{"coordinates":[-97.764679,30.251379],"type":"Point"},"id":"Chi\u0027Lantro BBQ","type":"Feature","properties":{"Zip":78704,"website":"http://www.chilantrobbq.com","address":"1509 S. Lamar Blvd","description":"Let\u2019s be honest; you\u2019re here for the kimchi fries. And they are amazing, especially topped with the spicy pork. With a fifth location on the way, Chi\u2019Lantro is becoming something of a local empire; you might as well get in on the action before they go national.","Latitude":30.251379,"City":"Austin","Longitude":-97.764679,"County":"Travis County","Accuracy Type":"range_interpolation","Accuracy Score":1,"Number":1509,"phone":"512/428-5269","State":"TX","name":"Chi\u0027Lantro BBQ","moreInfoUrl":"http://www.austinchronicle.com/locations/chi-lantro-1180351/","Street":"S Lamar Blvd","Country":"US","href":"http://www.austinchronicle.com/food/first-plates/2016/chi-lantro/","region":"SouthLamarandBartonSprings"}},{"geometry":{"coordinates":[-97.760151,30.257733],"type":"Point"},"id":"Uchi","type":"Feature","properties":{"Zip":78704,"website":"http://www.uchiaustin.com","address":"801 S. Lamar Blvd","description":"Rumor has it that Matthew McConaughey frequents this classy sushi joint and orders nothing but sea bream sashimi. We would be fine with just that as well \u2013 no soy sauce or wasabi needed on the immaculate cuts of fresh fish \u2013 but other menu items (Wagyu hot rock, tiger shrimp tempura, or the hakujin roll, to name a few) make it nearly impossible to not go all-out.","Latitude":30.257733,"City":"Austin","Longitude":-97.760151,"County":"Travis County","Accuracy Type":"range_interpolation","Accuracy Score":1,"Number":801,"phone":"512/916-4808","State":"TX","name":"Uchi","moreInfoUrl":"http://www.austinchronicle.com/locations/uchi-163503/","Street":"S Lamar Blvd","Country":"US","href":"http://www.austinchronicle.com/food/first-plates/2016/uchi/","region":"SouthLamarandBartonSprings"}},{"geometry":{"coordinates":[-97.76229,30.254995],"type":"Point"},"id":"Odd Duck","type":"Feature","properties":{"Zip":78704,"website":"http://www.oddduckaustin.com","address":"1201 S. Lamar Blvd","description":"Any person walking into Odd Duck for the first time will see the open kitchen and wood-fired oven and know they\u2019re about to get both dinner and a show. Starting as a trailer by Barley Swine owner Bryce Gilmore, Odd Duck focuses on letting local ingredients speak for themselves through small plates, like the duck fat fried rice and sweet potato with green chile. Some dishes are so good, you\u2019ll find yourself ordering another round of them before the night is over.","Latitude":30.254995,"City":"Austin","Longitude":-97.76229,"County":"Travis County","Accuracy Type":"range_interpolation","Accuracy Score":0.8,"Number":1201,"phone":"512/433-6521","State":"TX","name":"Odd Duck","moreInfoUrl":"http://www.austinchronicle.com/locations/odd-duck-1509138/","Street":"S Lamar Blvd","Country":"US","href":"http://www.austinchronicle.com/food/first-plates/2016/odd-duck/","region":"SouthLamarandBartonSprings"}},{"geometry":{"coordinates":[-97.766324,30.250283],"type":"Point"},"id":"Sazón","type":"Feature","properties":{"Zip":78704,"website":"http://www.sazonaustin.com","address":"1816 S. Lamar Blvd","description":"This South Austin favorite visits different culinary regions of Mexico, with nuanced twists and an emphasis on a worldwide food staple \u2013 corn \u2013 with delectable crema de elote and handmade corn tortillas. Enchiladas de mole, or de pipián, are solid choices, and the garlic rice is a nice detour from oft-featured Spanish rice.","Latitude":30.250283,"City":"Austin","Longitude":-97.766324,"County":"Travis County","Accuracy Type":"range_interpolation","Accuracy Score":1,"Number":1816,"phone":"512/326-4395","State":"TX","name":"Sazón","moreInfoUrl":"http://www.austinchronicle.com/locations/sazn-404549/","Street":"S Lamar Blvd","Country":"US","href":"http://www.austinchronicle.com/food/first-plates/2016/sazn/","region":"SouthLamarandBartonSprings"}},{"geometry":{"coordinates":[-97.721328,30.334151],"type":"Point"},"id":"Stiles Switch BBQ \u0026 Brew","type":"Feature","properties":{"Zip":78752,"website":"http://www.stilesswitchbbq.com","address":"6610 N. Lamar Blvd","description":"You know that feeling you have every time Garth Brooks\u2019 \u201cFriends in Low Places\u201d comes on? Stiles Switch is a little like that \u2013 comfortingly familiar, a little raucous, and a whole lot of fun. With superb barbecue from owner Shane Stiles and lead pitmaster Lance Kirkpatrick and a killer draft selection, Stiles is always the answer when we want to slip on down 2010 opening.","Latitude":30.334151,"City":"Austin","Longitude":-97.721328,"County":"Travis County","Accuracy Type":"range_interpolation","Accuracy Score":1,"Number":6610,"phone":"512/380-9199","State":"TX","name":"Stiles Switch BBQ \u0026 Brew","moreInfoUrl":"http://www.austinchronicle.com/locations/stiles-switch-bbq-and-brew-1311607/","Street":"N Lamar Blvd","Country":"US","href":"http://www.austinchronicle.com/food/first-plates/2016/stiles-switch-bbq-and-brew/","region":"Midtown"}},{"geometry":{"coordinates":[-97.741988,30.296962],"type":"Point"},"id":"Via 313","type":"Feature","properties":{"Zip":78705,"website":"http://www.via313.com","address":"3016 Guadalupe St #100","description":"Forever famous for their Detroit-style square pan pies with a caramelized cheese crust, the newest locations (both full-service restaurants with a full menu) offer apps like stuffed artichokes, beet salads with candied prosciutto, and thin-crust \"bar style\" pizzas that are \u2013 gasp! \u2013 round. As devoted to the four corners as we are, we can\u0027t deny we want to try all Via has to offer.","Latitude":30.296962,"City":"Austin","Longitude":-97.741988,"County":"Travis County","Accuracy Type":"range_interpolation","Accuracy Score":1,"Number":3016,"phone":"512/358-6193","State":"TX","name":"Via 313","moreInfoUrl":"http://www.austinchronicle.com/locations/via-313-1844594/","Street":"Guadalupe St","Country":"US","href":"http://www.austinchronicle.com/food/first-plates/2016/via-313/","region":"Campus"}},{"geometry":{"coordinates":[-97.739452,30.360611],"type":"Point"},"id":"Fork \u0026 Vine","type":"Feature","properties":{"Zip":78757,"website":"http://www.forkvine.com","address":"3010 W. Anderson Ln","description":"When we think of neighborhood restaurants, we usually think of dives. Chef Camden Stuerzenberger proves they can be sophisticated with hearty dishes that blend country club classicism (fried oysters, shrimp cocktail) with a global palate (shrimp \u0026 grits with a vanilla beurre blanc). The wine list is one of the best in the city.","Latitude":30.360611,"City":"Austin","Longitude":-97.739452,"County":"Travis County","Accuracy Type":"range_interpolation","Accuracy Score":1,"Number":3010,"phone":"512/489-7000","State":"TX","name":"Fork \u0026 Vine","moreInfoUrl":"http://www.austinchronicle.com/locations/fork-and-vine-1617072/","Street":"W Anderson Ln","Country":"US","href":"http://www.austinchronicle.com/food/first-plates/2016/fork-and-vine/","region":"NorthandNorthwest"}},{"geometry":{"coordinates":[-97.716684,30.361582],"type":"Point"},"id":"Din Ho Chinese BBQ","type":"Feature","properties":{"Zip":78758,"website":"http://www.dinhochinesebbq.com","address":"8557 Research Blvd  #116","description":"You know your restaurant offers something special when Austinites are willing to brave the journey from south to north just for a taste of the roast duck. Din Ho doesn\u2019t have a hip interior or a trendy craft cocktail program, but none of that matters when your eyes are rolling back in your head.","Latitude":30.361582,"City":"Austin","Longitude":-97.716684,"County":"Travis County","Accuracy Type":"range_interpolation","Accuracy Score":1,"Number":8557,"phone":"512/832-8788","State":"TX","name":"Din Ho Chinese BBQ","moreInfoUrl":"http://www.austinchronicle.com/locations/din-ho-chinese-bbq-46569/","Street":"Research Blvd","Country":"US","href":"http://www.austinchronicle.com/food/first-plates/2016/din-ho-chinese-bbq/","region":"NorthandNorthwest"}},{"geometry":{"coordinates":[-97.716684,30.361582],"type":"Point"},"id":"Ramen Tatsu-Ya","type":"Feature","properties":{"Zip":78758,"website":"http://www.ramen-tatsuya.com","address":"8557 Research Blvd #126","description":"One can\u2019t go wrong with the Tonkotsu Original, but if you really wanna get your lip-smackin\u2019 slurp on, get the Tsukemen \u2013 each dredge of noodles into the side of condensed pork-bone dipping broth is pure pleasure. The now very popular hashtag, #RTYslurp, says it all.","Latitude":30.361582,"City":"Austin","Longitude":-97.716684,"County":"Travis County","Accuracy Type":"range_interpolation","Accuracy Score":1,"Number":8557,"phone":"","State":"TX","name":"Ramen Tatsu-Ya","moreInfoUrl":"http://www.austinchronicle.com/locations/ramen-tatsu-ya-1381483/","Street":"Research Blvd","Country":"US","href":"http://www.austinchronicle.com/food/first-plates/2016/ramen-tatsu-ya/","region":"NorthandNorthwest"}},{"geometry":{"coordinates":[-97.728252,30.322798],"type":"Point"},"id":"Titaya\u0027s Thai Cuisine","type":"Feature","properties":{"Zip":78751,"website":"http://www.titayasthaicuisine.com","address":"5501 N. Lamar Blvd Ste. C-101","description":"A collective cry was let out when Austin\u2019s mainstay Titaya\u2019s closed for extensive renovations a few years back. Luckily when it reopened after its major face-lift, what came out of its kitchen was still exactly what customers wanted: amazing, non-fussy Thai food, like classic pad cha with crispy fried catfish.","Latitude":30.322798,"City":"Austin","Longitude":-97.728252,"County":"Travis County","Accuracy Type":"range_interpolation","Accuracy Score":1,"Number":5501,"phone":"512/458-1792","State":"TX","name":"Titaya\u0027s Thai Cuisine","moreInfoUrl":"http://www.austinchronicle.com/locations/titayas-thai-cuisine-899129/","Street":"N Lamar Blvd","Country":"US","href":"http://www.austinchronicle.com/food/first-plates/2016/titayas-thai-cuisine/","region":"Midtown"}},{"geometry":{"coordinates":[-97.708882,30.351218],"type":"Point"},"id":"Tâm Deli \u0026 Cafe","type":"Feature","properties":{"Zip":78753,"website":"http://www.fb.com/tamdeliandcafe","address":"8222 N. Lamar Blvd Ste. D-33","description":"Folks in the know talk about Tâm\u2019s bánh mì with whispered reverence. It\u2019s easy to see why. The pork has just the right amount of char, the baguette has just the right amount of chew, and the toppings are always garden fresh. Oh, and there\u2019s those cream puffs too. They sell out daily but still seem like Austin\u2019s best-kept secret.","Latitude":30.351218,"City":"Austin","Longitude":-97.708882,"County":"Travis County","Accuracy Type":"range_interpolation","Accuracy Score":1,"Number":8222,"phone":"512/834-6458","State":"TX","name":"Tâm Deli \u0026 Cafe","moreInfoUrl":"http://www.austinchronicle.com/locations/tm-deli-and-cafe-47535/","Street":"N Lamar Blvd","Country":"US","href":"http://www.austinchronicle.com/food/first-plates/2016/tm-deli-and-cafe/","region":"NorthandNorthwest"}},{"geometry":{"coordinates":[-97.75236,30.275209],"type":"Point"},"id":"wink","type":"Feature","properties":{"Zip":78703,"website":"http://www.winkrestaurant.com","address":"1014 N. Lamar Blvd","description":"Still going strong after 15 years, wink has seen more than its fair share of lit candles. That\u2019s because the Old West Austin staple has always known how to make their customers feel special. With timeless cuisine, an irreproachable front-of-house, and a savvy wine list, wink is always a celebration.","Latitude":30.275209,"City":"Austin","Longitude":-97.75236,"County":"Travis County","Accuracy Type":"range_interpolation","Accuracy Score":1,"Number":1014,"phone":"512/482-8868","State":"TX","name":"wink","moreInfoUrl":"http://www.austinchronicle.com/locations/wink-86380/","Street":"N Lamar Blvd","Country":"US","href":"http://www.austinchronicle.com/food/first-plates/2016/wink/","region":"West"}},{"geometry":{"coordinates":[-97.731485,30.270178],"type":"Point"},"id":"Franklin Barbecue","type":"Feature","properties":{"Zip":78702,"website":"http://www.franklinbarbecue.com","address":"900 E. 11th St","description":"So much has been written about Aaron Franklin and the restaurant that bears his name \u2013 the James Beard award, the lines, the religious experience of the brisket \u2013 that chiming in now really seems unnecessary. So instead, we\u0027ll just say one thing: It really is that good.","Latitude":30.270178,"City":"Austin","Longitude":-97.731485,"County":"Travis County","Accuracy Type":"range_interpolation","Accuracy Score":1,"Number":900,"phone":"512/653-1187","State":"TX","name":"Franklin Barbecue","moreInfoUrl":"http://www.austinchronicle.com/locations/franklin-barbecue-927245/","Street":"E 11th St","Country":"US","href":"http://www.austinchronicle.com/food/first-plates/2016/franklin-barbecue/","region":"East"}},{"geometry":{"coordinates":[-97.716013,30.293668],"type":"Point"},"id":"Cherrywood Coffeehouse","type":"Feature","properties":{"Zip":"","website":"http://www.cherrywoodcoffeehouse.com","address":"1400 E. 38 1/2 St","description":"Come for the award-winning burger, stay for an outdoor film screening. It may bill itself as a coffeehouse, but Cherrywood is more like a community hub, satisfying the yogi, budding artist, videophile, live-music lover, coffee snob, and foodie in all of us. No wonder there is always a line at brunch.","Latitude":30.293668,"City":"","Longitude":-97.716013,"County":"","Accuracy Type":"","Accuracy Score":"","Number":"","phone":"512/538-1991","State":"","name":"Cherrywood Coffeehouse","moreInfoUrl":"http://www.austinchronicle.com/locations/cherrywood-coffeehouse-259632/","Street":"","Country":"","href":"http://www.austinchronicle.com/food/first-plates/2016/cherrywood-coffeehouse/","region":"East"}},{"geometry":{"coordinates":[-97.722504,30.332384],"type":"Point"},"id":"Threadgill\u0027s North","type":"Feature","properties":{"Zip":78752,"website":"http://www.threadgills.com","address":"6416 N. Lamar Blvd","description":"Calling Eddie Wilson\u2019s down-home restaurant an institution is an understatement. Generations of Austinites have downed a beer (or two) at Threadgill\u2019s while feasting on chicken-fried steaks that are as legendary as the musicians who performed there. The massive selection of sides still makes us hoot and holler.","Latitude":30.332384,"City":"Austin","Longitude":-97.722504,"County":"Travis County","Accuracy Type":"range_interpolation","Accuracy Score":1,"Number":6416,"phone":"512/451-5440","State":"TX","name":"Threadgill\u0027s North","moreInfoUrl":"http://www.austinchronicle.com/locations/threadgills-north-46205/","Street":"N Lamar Blvd","Country":"US","href":"http://www.austinchronicle.com/food/first-plates/2016/threadgills-north/","region":"VirginiaB.WoodHallofFame"}},{"geometry":{"coordinates":[-97.742782,30.325451],"type":"Point"},"id":"Fonda San Miguel","type":"Feature","properties":{"Zip":78756,"website":"http://www.fondasanmiguel.com","address":"2330 W. North Loop Blvd","description":"Serving regional Mexican cuisine since 1975, Fonda San Miguel is as much of an Austin icon as it is a great happy hour spot. The walls of the expansive hacienda-style space showcase a fine gallery of Mexican art, and the dishes served are equally remarkable. Do not visit without ordering a ceviche and house margarita.","Latitude":30.325451,"City":"Austin","Longitude":-97.742782,"County":"Travis County","Accuracy Type":"range_interpolation","Accuracy Score":1,"Number":2330,"phone":"512/459-4121","State":"TX","name":"Fonda San Miguel","moreInfoUrl":"http://www.austinchronicle.com/locations/fonda-san-miguel-46572/","Street":"W North Loop Blvd","Country":"US","href":"http://www.austinchronicle.com/food/first-plates/2016/fonda-san-miguel/","region":"VirginiaB.WoodHallofFame"}}]}